{
  "airports": {
    "295800": {
      "id": 295800,
      "name": "UMAN",
      "type": 1,
      "country": "BELARUS",
      "lat": "53.965",
      "lng": "27.6483333",
      "declination": null,
      "altitude": 0,
      "runways": null,
      "dataType": "aerodrome",
      "translit": "УМАН",
      "description": "АНТЕЛЬ",
      "character": "ЛЕГКИЕ ВЕРТОЛЕТЫ ДО 3200КГ",
      "host": "ОДО <<АНТЕЛЬ>>"
    },
    "295801": {
      "id": 295801,
      "name": "UMBB",
      "type": 1,
      "country": "BELARUS",
      "lat": "52.1083333",
      "lng": "23.8983333",
      "declination": null,
      "altitude": 0,
      "runways": null,
      "dataType": "airport",
      "translit": "УМББ",
      "description": "BREST",
      "character": null,
      "host": null
    },
    "295802": {
      "id": 295802,
      "name": "UMBK",
      "type": 1,
      "country": "BELARUS",
      "lat": "52.17",
      "lng": "24.4066667",
      "declination": null,
      "altitude": 0,
      "runways": null,
      "dataType": "aerodrome",
      "translit": "УМБК",
      "description": "БОРИСОВО",
      "character": "АН-2, ДО 5250 КГ",
      "host": "ОАО <<КИСЕЛЕВЦЫ>>"
    },
    "295803": {
      "id": 295803,
      "name": "UMBP",
      "type": 1,
      "country": "BELARUS",
      "lat": "52.1166667",
      "lng": "26.0833333",
      "declination": null,
      "altitude": 0,
      "runways": null,
      "dataType": "airport",
      "translit": "УМБП",
      "description": "PINSK",
      "character": null,
      "host": null
    },
    "295804": {
      "id": 295804,
      "name": "UMDD",
      "type": 1,
      "country": "BELARUS",
      "lat": "53.8766667",
      "lng": "25.38",
      "declination": null,
      "altitude": 0,
      "runways": null,
      "dataType": "airport",
      "translit": "УМДД",
      "description": "LIDA",
      "character": null,
      "host": null
    },
    "295805": {
      "id": 295805,
      "name": "UMDP",
      "type": 1,
      "country": "BELARUS",
      "lat": "53.585",
      "lng": "27.6883333",
      "declination": null,
      "altitude": 0,
      "runways": null,
      "dataType": "aerodrome",
      "translit": "УМДП",
      "description": "",
      "character": "ВЗЛЕТНАЯ МАССА ДО 5700 КГ",
      "host": "НЕТ"
    },
    "295806": {
      "id": 295806,
      "name": "UMGG",
      "type": 1,
      "country": "BELARUS",
      "lat": "52.5266667",
      "lng": "31.0183333",
      "declination": null,
      "altitude": 0,
      "runways": null,
      "dataType": "airport",
      "translit": "УМГГ",
      "description": "HOMIEL",
      "character": null,
      "host": null
    },
    "295807": {
      "id": 295807,
      "name": "UMGM",
      "type": 1,
      "country": "BELARUS",
      "lat": "51.9666667",
      "lng": "29.1666667",
      "declination": null,
      "altitude": 0,
      "runways": null,
      "dataType": "airport",
      "translit": "УМГМ",
      "description": "МОЗЫРЬ",
      "character": null,
      "host": null
    },
    "295808": {
      "id": 295808,
      "name": "UMII",
      "type": 1,
      "country": "BELARUS",
      "lat": "55.1266667",
      "lng": "30.3516667",
      "declination": null,
      "altitude": 0,
      "runways": null,
      "dataType": "airport",
      "translit": "УМИИ",
      "description": "VICIEBSK",
      "character": null,
      "host": null
    },
    "295809": {
      "id": 295809,
      "name": "UMIO",
      "type": 1,
      "country": "BELARUS",
      "lat": "54.4333333",
      "lng": "30.3",
      "declination": null,
      "altitude": 0,
      "runways": null,
      "dataType": "airport",
      "translit": "УМИО",
      "description": "ORSHA",
      "character": null,
      "host": null
    },
    "295810": {
      "id": 295810,
      "name": "UMIP",
      "type": 1,
      "country": "BELARUS",
      "lat": "55.4166667",
      "lng": "28.75",
      "declination": null,
      "altitude": 0,
      "runways": null,
      "dataType": "airport",
      "translit": "УМИП",
      "description": "ПОЛОЦК",
      "character": null,
      "host": null
    },
    "295811": {
      "id": 295811,
      "name": "UMLI",
      "type": 1,
      "country": "BELARUS",
      "lat": "53.7733333",
      "lng": "27.58",
      "declination": null,
      "altitude": 0,
      "runways": null,
      "dataType": "airport",
      "translit": "УМЛИ",
      "description": "MACHULISHCHI",
      "character": null,
      "host": null
    },
    "295812": {
      "id": 295812,
      "name": "UMMA",
      "type": 1,
      "country": "BELARUS",
      "lat": "53.095",
      "lng": "26.0483333",
      "declination": null,
      "altitude": 0,
      "runways": null,
      "dataType": "airport",
      "translit": "УММА",
      "description": "BARANOVICHI",
      "character": null,
      "host": null
    },
    "295813": {
      "id": 295813,
      "name": "UMMB",
      "type": 1,
      "country": "BELARUS",
      "lat": "53.9616667",
      "lng": "27.6616667",
      "declination": null,
      "altitude": 0,
      "runways": null,
      "dataType": "airport",
      "translit": "УММБ",
      "description": "МИНСК/БОРОВАЯ",
      "character": null,
      "host": null
    },
    "295814": {
      "id": 295814,
      "name": "UMMG",
      "type": 1,
      "country": "BELARUS",
      "lat": "53.6016667",
      "lng": "24.055",
      "declination": null,
      "altitude": 0,
      "runways": null,
      "dataType": "airport",
      "translit": "УММГ",
      "description": "HRODNA",
      "character": null,
      "host": null
    },
    "295815": {
      "id": 295815,
      "name": "UMMI",
      "type": 1,
      "country": "BELARUS",
      "lat": "53.9",
      "lng": "27.7",
      "declination": null,
      "altitude": 0,
      "runways": null,
      "dataType": "airport",
      "translit": "УММИ",
      "description": "LIPKI",
      "character": null,
      "host": null
    },
    "295816": {
      "id": 295816,
      "name": "UMMM",
      "type": 1,
      "country": "BELARUS",
      "lat": "53.865",
      "lng": "27.5416667",
      "declination": null,
      "altitude": 0,
      "runways": null,
      "dataType": "airport",
      "translit": "УМММ",
      "description": "MINSK1",
      "character": null,
      "host": null
    },
    "295817": {
      "id": 295817,
      "name": "UMMO",
      "type": 1,
      "country": "BELARUS",
      "lat": "52.56",
      "lng": "24.8833333",
      "declination": null,
      "altitude": 0,
      "runways": null,
      "dataType": "airport",
      "translit": "УММО",
      "description": "OSOVTSY",
      "character": null,
      "host": null
    },
    "295818": {
      "id": 295818,
      "name": "UMMR",
      "type": 1,
      "country": "BELARUS",
      "lat": "53.3033333",
      "lng": "24.37",
      "declination": null,
      "altitude": 0,
      "runways": null,
      "dataType": "airport",
      "translit": "УММР",
      "description": "ROSS",
      "character": null,
      "host": null
    },
    "295819": {
      "id": 295819,
      "name": "UMMS",
      "type": 1,
      "country": "BELARUS",
      "lat": "53.8833333",
      "lng": "28.0333333",
      "declination": null,
      "altitude": 0,
      "runways": null,
      "dataType": "airport",
      "translit": "УММС",
      "description": "MINSK-2",
      "character": null,
      "host": null
    },
    "295820": {
      "id": 295820,
      "name": "UMMZ",
      "type": 1,
      "country": "BELARUS",
      "lat": "51.995",
      "lng": "29.1616667",
      "declination": null,
      "altitude": 0,
      "runways": null,
      "dataType": "airport",
      "translit": "УММЗ",
      "description": "МОЗЫРЬ",
      "character": null,
      "host": null
    },
    "295821": {
      "id": 295821,
      "name": "UMNB",
      "type": 1,
      "country": "BELARUS",
      "lat": "53.1016667",
      "lng": "29.205",
      "declination": null,
      "altitude": 0,
      "runways": null,
      "dataType": "airport",
      "translit": "УМНБ",
      "description": "BOBRUISK",
      "character": null,
      "host": null
    },
    "295822": {
      "id": 295822,
      "name": "UMNG",
      "type": 1,
      "country": "BELARUS",
      "lat": "53.63",
      "lng": "23.7333333",
      "declination": null,
      "altitude": 0,
      "runways": null,
      "dataType": "aerodrome",
      "translit": "УМНГ",
      "description": "КАРОЛИНО",
      "character": "ГВПП ПРИГОДНА ДЛЯ ЭКСПЛУАТАЦИИ САМОЛЕТОВ ДО 20Т,ВСЕХ ТИПОВ ВЕРТОЛЕТОВ И СЛА (АЭРОСТАТЫ);                                                                                                               МРПИ",
      "host": "ОО<<ГРОДНЕНСКИЙ АЭРОКЛУБ>>"
    },
    "295824": {
      "id": 295824,
      "name": "UMNL",
      "type": 1,
      "country": "BELARUS",
      "lat": "52.2666667",
      "lng": "26.7833333",
      "declination": null,
      "altitude": 0,
      "runways": null,
      "dataType": "airport",
      "translit": "УМНЛ",
      "description": "ЛУНИНЕЦ",
      "character": null,
      "host": null
    },
    "295826": {
      "id": 295826,
      "name": "UMNT",
      "type": 1,
      "country": "BELARUS",
      "lat": "52.4116667",
      "lng": "23.7966667",
      "declination": null,
      "altitude": 0,
      "runways": null,
      "dataType": "aerodrome",
      "translit": "УМНТ",
      "description": "КАМЕНЕЦ",
      "character": "ВС ДО 6000 КГ;ПОЛЕТЫ ДНЕМ В ВМУ",
      "host": "ЧУП<<ЗАПАДНОЕ>>"
    },
    "295827": {
      "id": 295827,
      "name": "UMNV",
      "type": 1,
      "country": "BELARUS",
      "lat": "52.5816667",
      "lng": "24.3816667",
      "declination": null,
      "altitude": 0,
      "runways": null,
      "dataType": "airport",
      "translit": "УМНЖ",
      "description": "PRUGANY",
      "character": null,
      "host": null
    },
    "295828": {
      "id": 295828,
      "name": "UMOO",
      "type": 1,
      "country": "BELARUS",
      "lat": "53.95",
      "lng": "30.0833333",
      "declination": null,
      "altitude": 0,
      "runways": null,
      "dataType": "airport",
      "translit": "УМОО",
      "description": "MAHILIOU",
      "character": null,
      "host": null
    },
    "295829": {
      "id": 295829,
      "name": "UMOV",
      "type": 1,
      "country": "BELARUS",
      "lat": "54.2516667",
      "lng": "26.8716667",
      "declination": null,
      "altitude": 0,
      "runways": null,
      "dataType": "airport",
      "translit": "УМОЖ",
      "description": "ХОЖЕВО",
      "character": null,
      "host": null
    },
    "295830": {
      "id": 295830,
      "name": "UMSP",
      "type": 1,
      "country": "BELARUS",
      "lat": "54.1033333",
      "lng": "28.5783333",
      "declination": null,
      "altitude": 0,
      "runways": null,
      "dataType": "aerodrome",
      "translit": "УМСП",
      "description": "СИВИЦА",
      "character": "ВС ДО 5700 КГ АЭРОВИЗУАЛЬНЫЕ",
      "host": "ООО <<АВИАПАРТНЕР>>"
    },
    "295831": {
      "id": 295831,
      "name": "UMST",
      "type": 1,
      "country": "BELARUS",
      "lat": "54.0283333",
      "lng": "26.925",
      "declination": null,
      "altitude": 0,
      "runways": null,
      "dataType": "aerodrome",
      "translit": "УМСТ",
      "description": "СТАРИНКИ",
      "character": "ВС ДО 6ТОНН",
      "host": "ООО <<ДЖЕНЕРАЛ ЛАЙН>>"
    },
    "295832": {
      "id": 295832,
      "name": "UMUP",
      "type": 1,
      "country": "BELARUS",
      "lat": "53.75",
      "lng": "26.8633333",
      "declination": null,
      "altitude": 0,
      "runways": null,
      "dataType": "aerodrome",
      "translit": "УМУП",
      "description": "СУЛА",
      "character": "ВС И ЛА АОН ДО5700КГ ,СЛА С МК=320-140,ВЕРТАЛЕТЫ АОН,ПАРАПЛАНЫ,МОТОПАРАПЛАНЫ,ДЕЛЬТАПЛАНЫ,МОТОДЕЛЬТАПЛЫНЫ И АЭРОСТАТОВ В ЛЮБОМ НАПРАВЛЕНИИ В СООТВЕТСТВИИ С РЛЭ ВС",
      "host": "КРЕСТЬЯНСКОЕ ФЕРМЕРСКОЕ ХОЗЯЙСТВО <<ПАНСКИ МАЕНТАК>>"
    },
    "295833": {
      "id": 295833,
      "name": "XMBA",
      "type": 1,
      "country": "BELARUS",
      "lat": "54.0833333",
      "lng": "27.4833333",
      "declination": null,
      "altitude": 0,
      "runways": null,
      "dataType": "aerodrome",
      "translit": "ЬМБА",
      "description": "МАСЛОВИЧИ",
      "character": "ПОЛЕТЫ НА ДЕЛЬТОПЛАНАХ ДЕЛЬТАЛЕТАХ,ПАРАПЛАНАХ,МОТОПАРАПЛАНАХ,ПЛАНЕРАХ,САМОЛЕТАХ ОТНОСЯЩИХСЯ К  СЛА ДНЕМ В ВМУ",
      "host": "ОБЩЕСТВЕННОЕ ОБЪЕДИНЕНИЕ <<БЕЛОРУССКАЯ ФЕДЕРАЦИЯ СВЕРХЛЕГКОЙ АВИАЦИИ>>"
    },
    "295834": {
      "id": 295834,
      "name": "XMBD",
      "type": 1,
      "country": "BELARUS",
      "lat": "54.1",
      "lng": "27.8",
      "declination": null,
      "altitude": 0,
      "runways": null,
      "dataType": "aerodrome",
      "translit": "ЬМБД",
      "description": "ДУБРОВО",
      "character": "ДЕЛТАПЛАНАХ,ДЕЛЬТАЛЕТАХ,ПАРАПЛАНАХ,МОТОПАРАПЛАНАХ,ПЛАНЕРАХ,САМОЛЕТАХ,ВОЗДУШНЫХ ШАРАХ ОТНОСЯЩИХСЯ К СЛА                                                                                                           МРПИ",
      "host": "ОБЩЕСТВЕННОЕ ОБЪЕДИНЕНИЕ <<БЕЛОРУССКАЯ ФЕДЕРАЦИЯ СВЕРХЛЕГКОЙ АВИАЦИИ>>"
    },
    "295835": {
      "id": 295835,
      "name": "XMBE",
      "type": 1,
      "country": "BELARUS",
      "lat": "54.1833333",
      "lng": "27.8333333",
      "declination": null,
      "altitude": 0,
      "runways": null,
      "dataType": "aerodrome",
      "translit": "ЬМБЕ",
      "description": "ЛОГОЙСК",
      "character": "ДЕЛЬТАПЛАНЫ , ДЕЛЬТАЛЕТЫ, ПАРАПЛАНЫ, МОТОПАРАПЛАНЫ, ПЛАНЕРЫ ,САМОЛЕТЫ ,ВОЗДУШНЫЕ ШАРЫ,ОТНОСЯЩИЕСЯ К СЛА;      ДНЕМ В ВМУ                                                       МРПИ",
      "host": "ОБЩЕСТВЕННОЕ ОБЪЕДИНЕНИЕ <<БЕЛОРУССКАЯ ФЕДЕРАЦИЯ СВЕРХЛЕГКОЙ АВИАЦИИ>>"
    },
    "295836": {
      "id": 295836,
      "name": "XMBI",
      "type": 1,
      "country": "BELARUS",
      "lat": "54.15",
      "lng": "27.8333333",
      "declination": null,
      "altitude": 0,
      "runways": null,
      "dataType": "aerodrome",
      "translit": "ЬМБИ",
      "description": "СИЛИЧИ",
      "character": "ДЕЛЬТАПЛАНЫ ,ДЕЛЬТАЛЕТЫ,ПАРАПЛАНЫ,МОТОПАРАПЛАНЫ,ПЛАНЕРЫ САМОЛЕТЫ,ВОЗДУШНЫЕ ШАРЫ,ОТНОСЯЩИЕСЯ К БЛА  ,НА ВСЕХ ТИПАХ СЛА  ДНЕМ В ВМУ                                                                                                                                                                МРПИ",
      "host": "ОБЩЕСТВЕННОЕ ОБЪЕДИНЕНИЕ <<БЕЛОРУССКАЯ ФЕДЕРАЦИЯ СВЕРХЛЕГКОЙ АВИАЦИИ>>"
    },
    "295837": {
      "id": 295837,
      "name": "XMBK",
      "type": 1,
      "country": "BELARUS",
      "lat": "53.5",
      "lng": "27.75",
      "declination": null,
      "altitude": 0,
      "runways": null,
      "dataType": "aerodrome",
      "translit": "ЬМБК",
      "description": "СЕРГЕЕВИЧИ",
      "character": "МИ-2; ВЕРТОЛЕТОВ ДО 5000 КГ. НА ОТРАБОТКУ ТЕХНИКИ ПИЛОТИРОВАНИЯ;ПО ЗАКАЗУ И СОГЛАСОВАНИЮ С МЕСТНЫМИ АДМИНИСТРАТИВНЫМИ ОРГАНАМИ ВЛАСТИ;",
      "host": "ДОСААФ"
    },
    "295838": {
      "id": 295838,
      "name": "XMBM",
      "type": 1,
      "country": "BELARUS",
      "lat": "53.62",
      "lng": "27.555",
      "declination": null,
      "altitude": 0,
      "runways": null,
      "dataType": "aerodrome",
      "translit": "ЬМБМ",
      "description": "ВОЙРОВКА",
      "character": "ВС ДО 5700 КГ  НА ВС, ВЕРТОЛЕТАХ, АВТОЖИРАХ, ПАРАПЛАНАХ, МОТОПАРАПЛАНАХ, ДЕЛЬТАПЛАНАХ ,МОТОДЕЛЬТАПЛАНАХ И АЭРОСТАТАХ  И  ДРУГИЕ ПОЛЕТЫ ДНЕМ В ВМУ           МРПИ",
      "host": "ФЕРМЕРСКОЕ ХОЗЯЙСТВО<<НИКИТИК С.В.>>"
    },
    "295839": {
      "id": 295839,
      "name": "XMBZ",
      "type": 1,
      "country": "BELARUS",
      "lat": "53.5783333",
      "lng": "24.4616667",
      "declination": null,
      "altitude": 0,
      "runways": null,
      "dataType": "aerodrome",
      "translit": "ЬМБЗ",
      "description": "БОЛЬШИЕ ЯКОВИЧИ",
      "character": "ДЕЛЬТАПЛАНЫ,ПАРАПЛАНЫ,МОТОПАРАПЛАНЫ,ПЛАНЕРЫ И САМОЛЕТЫ,ОТНОСЯЩИЕСЯ К СЛА",
      "host": "ОБЩЕСТВЕННОЕ ОБЪЕДИНЕНИЕ <<БЕЛОРУССКАЯ ФЕДЕРАЦИЯ СВЕРХЛЕГКОЙ АВИАЦИИ>>"
    },
    "295840": {
      "id": 295840,
      "name": "XMDD",
      "type": 1,
      "country": "BELARUS",
      "lat": "53.8833333",
      "lng": "25.3833333",
      "declination": null,
      "altitude": 0,
      "runways": null,
      "dataType": "airport",
      "translit": "ЬМДД",
      "description": "ЛИДА",
      "character": null,
      "host": null
    },
    "295841": {
      "id": 295841,
      "name": "XMDU",
      "type": 1,
      "country": "BELARUS",
      "lat": "53.5983333",
      "lng": "24.765",
      "declination": null,
      "altitude": 0,
      "runways": null,
      "dataType": "aerodrome",
      "translit": "ЬМДУ",
      "description": "ЩУЧИН",
      "character": "СОГЛАСОВАНИЕ ИСПОЛЬЗОВАНИЯ ПЛОЩАДКИ С ФИШМАН Д.В. \nВСЕ ТИПЫ ВС ДО 5700КГ",
      "host": "ГУ \"АВИАТОР\" ЩУЧИНСКОГО Р-НА"
    },
    "295842": {
      "id": 295842,
      "name": "XMGB",
      "type": 1,
      "country": "BELARUS",
      "lat": "52.2833333",
      "lng": "29.35",
      "declination": null,
      "altitude": 0,
      "runways": null,
      "dataType": "airport",
      "translit": "ЬМГБ",
      "description": "БОБРОВИЧИ",
      "character": null,
      "host": null
    },
    "295843": {
      "id": 295843,
      "name": "XMGD",
      "type": 1,
      "country": "BELARUS",
      "lat": "52.5166667",
      "lng": "31.0166667",
      "declination": null,
      "altitude": 0,
      "runways": null,
      "dataType": "airport",
      "translit": "ЬМГД",
      "description": "ГОМЕЛЬ(БЛЮДНИЦА)",
      "character": null,
      "host": null
    },
    "295844": {
      "id": 295844,
      "name": "XMGR",
      "type": 1,
      "country": "BELARUS",
      "lat": "52.3",
      "lng": "31.1666667",
      "declination": null,
      "altitude": 0,
      "runways": null,
      "dataType": "airport",
      "translit": "ЬМГР",
      "description": "ЗЯБРОВКА",
      "character": null,
      "host": null
    },
    "295845": {
      "id": 295845,
      "name": "XMLI",
      "type": 1,
      "country": "BELARUS",
      "lat": "53.77",
      "lng": "27.5833333",
      "declination": null,
      "altitude": 0,
      "runways": null,
      "dataType": "airport",
      "translit": "ЬМЛИ",
      "description": "МАЧУЛИЩИ",
      "character": null,
      "host": null
    },
    "295846": {
      "id": 295846,
      "name": "XMMA",
      "type": 1,
      "country": "BELARUS",
      "lat": "53.1",
      "lng": "26.05",
      "declination": null,
      "altitude": 0,
      "runways": null,
      "dataType": "airport",
      "translit": "ЬММА",
      "description": "БАРАНОВИЧИ",
      "character": null,
      "host": null
    },
    "295847": {
      "id": 295847,
      "name": "XMME",
      "type": 1,
      "country": "BELARUS",
      "lat": "55.65",
      "lng": "27.7",
      "declination": null,
      "altitude": 0,
      "runways": null,
      "dataType": "airport",
      "translit": "ЬММЕ",
      "description": "МИОРЫ",
      "character": null,
      "host": null
    },
    "295848": {
      "id": 295848,
      "name": "XMMI",
      "type": 1,
      "country": "BELARUS",
      "lat": "53.9",
      "lng": "27.7",
      "declination": null,
      "altitude": 0,
      "runways": null,
      "dataType": "airport",
      "translit": "ЬММИ",
      "description": "ЛИПКИ",
      "character": null,
      "host": null
    },
    "295849": {
      "id": 295849,
      "name": "XMMK",
      "type": 1,
      "country": "BELARUS",
      "lat": "53.7166667",
      "lng": "31.9166667",
      "declination": null,
      "altitude": 0,
      "runways": null,
      "dataType": "airport",
      "translit": "ЬММК",
      "description": "КРИЧЕВ",
      "character": null,
      "host": null
    },
    "295850": {
      "id": 295850,
      "name": "XMML",
      "type": 1,
      "country": "BELARUS",
      "lat": "54.9",
      "lng": "28.8666667",
      "declination": null,
      "altitude": 0,
      "runways": null,
      "dataType": "airport",
      "translit": "ЬММЛ",
      "description": "ЛЕПЕЛЬ (ЗАСЛОНОВО)",
      "character": null,
      "host": null
    },
    "295851": {
      "id": 295851,
      "name": "XMMM",
      "type": 1,
      "country": "BELARUS",
      "lat": "55.1333333",
      "lng": "26.8333333",
      "declination": null,
      "altitude": 0,
      "runways": null,
      "dataType": "airport",
      "translit": "ЬМММ",
      "description": "ПОСТАВЫ(ОЗЕРКИ)",
      "character": null,
      "host": null
    },
    "295852": {
      "id": 295852,
      "name": "XMMO",
      "type": 1,
      "country": "BELARUS",
      "lat": "52.55",
      "lng": "24.8666667",
      "declination": null,
      "altitude": 0,
      "runways": null,
      "dataType": "airport",
      "translit": "ЬММО",
      "description": "ОСОВЦЫ",
      "character": null,
      "host": null
    },
    "295853": {
      "id": 295853,
      "name": "XMMP",
      "type": 1,
      "country": "BELARUS",
      "lat": "55.1166667",
      "lng": "26.7666667",
      "declination": null,
      "altitude": 0,
      "runways": null,
      "dataType": "airport",
      "translit": "ЬММП",
      "description": "ПОСТАВЫ",
      "character": null,
      "host": null
    },
    "295854": {
      "id": 295854,
      "name": "XMMR",
      "type": 1,
      "country": "BELARUS",
      "lat": "53.3",
      "lng": "24.3666667",
      "declination": null,
      "altitude": 0,
      "runways": null,
      "dataType": "airport",
      "translit": "ЬММР",
      "description": "РОССЬ",
      "character": null,
      "host": null
    },
    "295855": {
      "id": 295855,
      "name": "XMMU",
      "type": 1,
      "country": "BELARUS",
      "lat": "53.5833333",
      "lng": "24.7666667",
      "declination": null,
      "altitude": 0,
      "runways": null,
      "dataType": "airport",
      "translit": "ЬММУ",
      "description": "ЩУЧИН",
      "character": null,
      "host": null
    },
    "295856": {
      "id": 295856,
      "name": "XMMW",
      "type": 1,
      "country": "BELARUS",
      "lat": "55.6166667",
      "lng": "28.6833333",
      "declination": null,
      "altitude": 0,
      "runways": null,
      "dataType": "airport",
      "translit": "ЬММВ",
      "description": "БОРОВЦЫ",
      "character": null,
      "host": null
    },
    "295858": {
      "id": 295858,
      "name": "XMNB",
      "type": 1,
      "country": "BELARUS",
      "lat": "53.1016667",
      "lng": "29.205",
      "declination": null,
      "altitude": 0,
      "runways": null,
      "dataType": "airport",
      "translit": "ЬМНБ",
      "description": "БОБРУЙСК",
      "character": null,
      "host": null
    },
    "295859": {
      "id": 295859,
      "name": "XMNG",
      "type": 1,
      "country": "BELARUS",
      "lat": "53.6666667",
      "lng": "23.8333333",
      "declination": null,
      "altitude": 0,
      "runways": null,
      "dataType": "airport",
      "translit": "ЬМНГ",
      "description": "ГРОДНО",
      "character": null,
      "host": null
    },
    "295860": {
      "id": 295860,
      "name": "XMNH",
      "type": 1,
      "country": "BELARUS",
      "lat": "53.5166667",
      "lng": "30.2",
      "declination": null,
      "altitude": 0,
      "runways": null,
      "dataType": "aerodrome",
      "translit": "ЬМНХ",
      "description": "БЫХОВ",
      "character": "АН-2 ,МИ-2,ИЛ-103",
      "host": "УКСП<<МОКРЯНСКИЙ>>"
    },
    "295861": {
      "id": 295861,
      "name": "XMNI",
      "type": 1,
      "country": "BELARUS",
      "lat": "55.1666667",
      "lng": "30.25",
      "declination": null,
      "altitude": 0,
      "runways": null,
      "dataType": "airport",
      "translit": "ЬМНИ",
      "description": "ВИТЕБСК/КУКОВИЧЕНО",
      "character": null,
      "host": null
    },
    "295863": {
      "id": 295863,
      "name": "XMNN",
      "type": 1,
      "country": "BELARUS",
      "lat": "52.2333333",
      "lng": "24.35",
      "declination": null,
      "altitude": 0,
      "runways": null,
      "dataType": "airport",
      "translit": "ЬМНН",
      "description": "КОБРИН",
      "character": null,
      "host": null
    },
    "295864": {
      "id": 295864,
      "name": "XMNO",
      "type": 1,
      "country": "BELARUS",
      "lat": "54.4333333",
      "lng": "30.3",
      "declination": null,
      "altitude": 0,
      "runways": null,
      "dataType": "airport",
      "translit": "ЬМНО",
      "description": "ОРША(БАЛБАСОВО)",
      "character": null,
      "host": null
    },
    "295866": {
      "id": 295866,
      "name": "XMNV",
      "type": 1,
      "country": "BELARUS",
      "lat": "52.5",
      "lng": "24.5",
      "declination": null,
      "altitude": 0,
      "runways": null,
      "dataType": "airport",
      "translit": "ЬМНЖ",
      "description": "ПРУЖАНЫ(ВОСТОЧНЫЙ)",
      "character": null,
      "host": null
    },
    "295867": {
      "id": 295867,
      "name": "XMNW",
      "type": 1,
      "country": "BELARUS",
      "lat": "55.25",
      "lng": "30.25",
      "declination": null,
      "altitude": 0,
      "runways": null,
      "dataType": "airport",
      "translit": "ЬМНВ",
      "description": "ВИТЕБСК(СЕВЕРНЫЙ)",
      "character": null,
      "host": null
    },
    "298276": {
      "id": 298276,
      "name": "ЬМБР",
      "type": 4,
      "description": "ПИНСК",
      "country": "BELARUS",
      "lat": "52.1527778",
      "lng": "26.1541667",
      "declination": null,
      "altitude": null,
      "runways": null,
      "dataType": "aerodrome",
      "translit": "XMBR",
      "character": "АН-2, МИ-2",
      "host": "РЕСПУБЛИКАНСКОЕ УНИТАРНОЕ ПРЕДПРИЯТИЕ <<БЕЛЛЕСАВИА>>"
    },
    "298277": {
      "id": 298277,
      "name": "ЬМГН",
      "type": 4,
      "description": "МОЗЫРЬ",
      "country": "BELARUS",
      "lat": "51.9944444",
      "lng": "29.1611111",
      "declination": null,
      "altitude": null,
      "runways": null,
      "dataType": "aerodrome",
      "translit": "XMGN",
      "character": "АН-2, ИЛ-103, МИ-2",
      "host": "РЕСПУБЛИКАНСКОЕ УНИТАРНОЕ ПРЕДПРИЯТИЕ <<БЕЛЛЕСАВИА>>"
    },
    "298279": {
      "id": 298279,
      "name": "ЬМИР",
      "type": 4,
      "description": "ПОЛОЦК",
      "country": "BELARUS",
      "lat": "55.4166667",
      "lng": "28.7527778",
      "declination": null,
      "altitude": null,
      "runways": null,
      "dataType": "aerodrome",
      "translit": "XMIR",
      "character": "АН-2, МИ-2",
      "host": "РЕСПУБЛИКАНСКОЕ УНИТАРНОЕ ПРЕДПРИЯТИЕ <<БЕЛЛЕСАВИА>>"
    },
    "298280": {
      "id": 298280,
      "name": "ЬММЗ",
      "type": 4,
      "description": "АВИАРАНЧО",
      "country": "BELARUS",
      "lat": "53.9513889",
      "lng": "27.3347222",
      "declination": null,
      "altitude": null,
      "runways": null,
      "dataType": "aerodrome",
      "translit": "XMMZ",
      "character": "ВС ДО 4000 КГ; ДНЕМ В ВМУ                                                                                                                                                МРПИ",
      "host": "ООО <<ТАБАК-ИНВЕСТ>>"
    },
    "298281": {
      "id": 298281,
      "name": "ЬММЦ",
      "type": 4,
      "description": "МОЛОДЕЧНО",
      "country": "BELARUS",
      "lat": "54.2527778",
      "lng": "26.8777778",
      "declination": null,
      "altitude": null,
      "runways": null,
      "dataType": "aerodrome",
      "translit": "XMMC",
      "character": "АН-2, МИ-2",
      "host": "РЕСПУБЛИКАНСКОЕ УНИТАРНОЕ ПРЕДПРИЯТИЕ <<БЕЛЛЕСАВИА>>"
    },
    "298282": {
      "id": 298282,
      "name": "ЬМНФ",
      "type": 4,
      "description": "ИМЕНИН",
      "country": "BELARUS",
      "lat": "52.245",
      "lng": "24.8933333",
      "declination": null,
      "altitude": null,
      "runways": null,
      "dataType": "aerodrome",
      "translit": "XMNF",
      "character": "АН-2 ВС ДО 5250 КГ",
      "host": "СЕЛЬСКОХОЗЯЙСТВЕННЫЙ ПРОИЗВОДСТВЕННЫЙ КООПЕРАТИВ <<ИМЕНИНСКИЙ>>"
    },
    "298284": {
      "id": 298284,
      "name": "ЬМФК",
      "type": 4,
      "description": "ЗАБОЛОТЬЕ",
      "country": "BELARUS",
      "lat": "53.9966667",
      "lng": "28.0686111",
      "declination": null,
      "altitude": null,
      "runways": null,
      "dataType": "aerodrome",
      "translit": "XMFK",
      "character": "К ПРИЕМУ ВС ВС 4 КЛАССА ;ДО МАССОЙ 5700 КГ  ;ДНЕМ В ВМУ",
      "host": "ИП <<ШТОТЦ  АГРОСЕРВИС>>"
    },
    "298285": {
      "id": 298285,
      "name": null,
      "type": 2,
      "description": "МОЙСИЧИ",
      "country": "BELARUS",
      "lat": "54.2436111",
      "lng": "26.8611111",
      "declination": null,
      "altitude": null,
      "runways": null,
      "dataType": "airstrip",
      "translit": null,
      "character": "ВС  И ЛА АОН ДО 5700 КГ И СЛА С МК=030-210,ВЕРТОЛЕТОВ АОН И СЛА ,ПАРАПЛАНОВ,МОТОПАРАПЛАНОВ,ДЕЛЬТАПЛАНОВ,МОТОДЕЛЬТАПЛАНОВ И АЭРОСТАТОВ В ЛЮБОМ НАПРАВЛЕНИИ",
      "host": "ЧСУП <<ХОЖОВОАГРО-2009>>"
    },
    "298286": {
      "id": 298286,
      "name": null,
      "type": 2,
      "description": "ОЗЕРЦО",
      "country": "BELARUS",
      "lat": "53.8305556",
      "lng": "27.3769444",
      "declination": null,
      "altitude": null,
      "runways": null,
      "dataType": "airstrip",
      "translit": null,
      "character": "ВЗЛЕТНАЯ МАССА ВСДО 5700КГ И ВС ОНОСЯЩИЕСЯ К СВЕРХЛЕГКИМ ЛЕТАТЕЛЬНЫМ АППАРАТАМ(СЛА)",
      "host": "ГОСУДАРСТВЕННОЕ ПРЕДПРИЯТИЕ <<БЕЛОРУССКИЙ ГОСУДАРСТВЕННЫЙ МУЗЕЙ НАРОДНОЙ АРХИТЕКТУРЫ И БЫТА>>"
    },
    "298287": {
      "id": 298287,
      "name": null,
      "type": 2,
      "description": "ДУКОРА",
      "country": "BELARUS",
      "lat": "53.6761111",
      "lng": "27.9708333",
      "declination": null,
      "altitude": null,
      "runways": null,
      "dataType": "airstrip",
      "translit": null,
      "character": "ДО 5700 КГ",
      "host": "ЗАО ПУХОВИЧСКИЙ АГРОПРОДУКТ"
    },
    "298288": {
      "id": 298288,
      "name": null,
      "type": 2,
      "description": "ТУРЕЦ",
      "country": "BELARUS",
      "lat": "53.5447222",
      "lng": "26.3022222",
      "declination": null,
      "altitude": null,
      "runways": null,
      "dataType": "airstrip",
      "translit": null,
      "character": "ДО 5700КГ ВС И СЛА",
      "host": "ООО АВИАМОТОРС"
    },
    "298289": {
      "id": 298289,
      "name": null,
      "type": 2,
      "description": "ХОЖЕВО",
      "country": "BELARUS",
      "lat": "54.2516667",
      "lng": "26.8716667",
      "declination": null,
      "altitude": null,
      "runways": null,
      "dataType": "airstrip",
      "translit": null,
      "character": "ВС НЕ БОЛЕЕ 5700 КГ ДНЕМ ПО ПВП, \nПАРАШЮТНЫЕ ПРЫЖКИ, \nПРОВЕДЕНИЕ СПОРТИВНЫХ МЕРОПРИЯТИЙ ПО АВИАЦ. ВИДАМ СПОРТА.",
      "host": "ООО \"ЦЕНТР АВИАЦИОННОГО СПОРТА\""
    },
    "298290": {
      "id": 298290,
      "name": null,
      "type": 2,
      "description": "ЧЕРНИЦКИЙ",
      "country": "BELARUS",
      "lat": "54.0216667",
      "lng": "28.2633333",
      "declination": null,
      "altitude": null,
      "runways": null,
      "dataType": "airstrip",
      "translit": null,
      "character": "ВС МАССА КОТОРЫХ НЕ ПРЕВЫШАЕТ 5700 КГ,ВЕРТОЛЁТЫ,ПЛАНЕРЫ,ДЕЛЬТАЛЁТЫ,ПАРАПЛАНЫ,АЭРОСТАТЫ ДНЁМ ПО ПВП",
      "host": "ООО\"СТРОЙПЛАНАЭРО\""
    },
    "298292": {
      "id": 298292,
      "name": null,
      "type": 2,
      "description": "КУХТИЧИ",
      "country": "BELARUS",
      "lat": "53.475",
      "lng": "27.1447222",
      "declination": null,
      "altitude": null,
      "runways": null,
      "dataType": "airstrip",
      "translit": null,
      "character": "ИВПП ИМЕЕТ РАЗМЕРЫ 430/28 М.\nЭКСПЕРЕМЕНТАЛЬНЫЕ ВС РАЗРАБАТЫВАЕМЫЕ ИЛИ МОДИФИЦИРУЕМЫЕ ООО\"ЮВР\".\nВС ДО 3500 КГ.\n",
      "host": "НЕТ"
    },
    "298293": {
      "id": 298293,
      "name": null,
      "type": 2,
      "description": "БАРСУКИ",
      "country": "BELARUS",
      "lat": "53.6686111",
      "lng": "31.9238889",
      "declination": null,
      "altitude": null,
      "runways": null,
      "dataType": "airstrip",
      "translit": null,
      "character": "АН-2,МИ-2,ИЛ-103",
      "host": "ДОМАМЕРИЧЕСКИЙ С/СОВЕТ"
    },
    "298294": {
      "id": 298294,
      "name": null,
      "type": 2,
      "description": "БЕЛАЯ ЛУЖА",
      "country": "BELARUS",
      "lat": "54.1527778",
      "lng": "28.4",
      "declination": null,
      "altitude": null,
      "runways": null,
      "dataType": "airstrip",
      "translit": null,
      "character": "АВИАТИКА-890 У ,ВС ДО 485КГ",
      "host": "ХОЗЯЙСТВО <<Н.П. БУДАГОВА >>СМОЛЕВИЧСКОЕ РАЙСЕЛЬХОЗУПРАВЛЕНИЕ"
    },
    "298295": {
      "id": 298295,
      "name": null,
      "type": 2,
      "description": "БЕЛЬ",
      "country": "BELARUS",
      "lat": "53.7797222",
      "lng": "31.6652778",
      "declination": null,
      "altitude": null,
      "runways": null,
      "dataType": "airstrip",
      "translit": null,
      "character": "АН-2 ,ВС ДО 5500 КГ",
      "host": "СПК<<БЕЛЬ>>"
    },
    "298296": {
      "id": 298296,
      "name": null,
      "type": 2,
      "description": "ГАЛЫЙ БОР",
      "country": "BELARUS",
      "lat": "52.4216667",
      "lng": "26.9733333",
      "declination": null,
      "altitude": null,
      "runways": null,
      "dataType": "airstrip",
      "translit": null,
      "character": "АН-2 , ДО 5250 КГ",
      "host": "КОММУНАЛЬНОЕ УНИТАРНОЕ СЕЛЬХОЗПРЕДПРИЯТИЕ <<МЕЖЛЕССКОЕ>>"
    },
    "298297": {
      "id": 298297,
      "name": null,
      "type": 2,
      "description": "ЧЕРНИЦА",
      "country": "BELARUS",
      "lat": "53.9966667",
      "lng": "28.0686111",
      "declination": null,
      "altitude": null,
      "runways": null,
      "dataType": "airstrip",
      "translit": null,
      "character": "АН-2,МИ-2 КА-26,CESNA-172     СЛА ВСЕХ ТИПОВ",
      "host": "ИП <<ШТОТЦ  АГРОСЕРВИС>>"
    },
    "298298": {
      "id": 298298,
      "name": null,
      "type": 2,
      "description": "ЗАКОЗЕЛЬ",
      "country": "BELARUS",
      "lat": "52.1183333",
      "lng": "24.9733333",
      "declination": null,
      "altitude": null,
      "runways": null,
      "dataType": "airstrip",
      "translit": null,
      "character": "АН-2 И ВС ДО 5250 КГ",
      "host": "ГУ СЕЛЬСКОХОЗЯЙСТВЕННОЕ ПРЕДПРИЯТИЕ <<ЗАКОЗЕЛЬСКИЙ>>"
    },
    "298299": {
      "id": 298299,
      "name": null,
      "type": 2,
      "description": "ЗАРЯ",
      "country": "BELARUS",
      "lat": "54.0408333",
      "lng": "30.1927778",
      "declination": null,
      "altitude": null,
      "runways": null,
      "dataType": "airstrip",
      "translit": null,
      "character": "АН-2 ВС ДО 5500 КГ ,В СВЕТЛОЕ ВРЕМЯ СУТОК ПО ПВП",
      "host": "ЗАО <<АГРОКОМБИНАТ ЗАРЯ>>"
    },
    "298300": {
      "id": 298300,
      "name": null,
      "type": 2,
      "description": "КЛЕПАЧИ",
      "country": "BELARUS",
      "lat": "52.7038889",
      "lng": "24.3780556",
      "declination": null,
      "altitude": null,
      "runways": null,
      "dataType": "airstrip",
      "translit": null,
      "character": "АН-2 ,КА-26(С МАК МАССОЙ 3250),СЛА(МОТОДЕЛЬТАПЛАН ТИПА ФРЕГАТ Т-2М СХ МАК МАССА 750КГ) В СВЕТЛОЕ ВРЕМЯ СУТОК, ВС ДО 5700 КГ",
      "host": "ООО <<ПРУЖАНЫ АВИАХИМСЕРВИС>>"
    },
    "298301": {
      "id": 298301,
      "name": null,
      "type": 2,
      "description": "МОРОЗОВИЧИ",
      "country": "BELARUS",
      "lat": "52.2816667",
      "lng": "23.5133333",
      "declination": null,
      "altitude": null,
      "runways": null,
      "dataType": "airstrip",
      "translit": null,
      "character": "АН-2 ,ВС ДО 5250 КГ",
      "host": "СЕЛЬСКОХОЗЯЙСТВЕННЫЙ ПРОИЗВОДСТВЕННЫЙ КООПЕРАТИВ<<ОСТРОМЕЧЕВО>>"
    },
    "298302": {
      "id": 298302,
      "name": null,
      "type": 2,
      "description": "МОТОЛЬ",
      "country": "BELARUS",
      "lat": "52.3183333",
      "lng": "25.5466667",
      "declination": null,
      "altitude": null,
      "runways": null,
      "dataType": "airstrip",
      "translit": null,
      "character": "АН-2 ВС ДО 5250 КГ",
      "host": "СЕЛЬСКОХОЗЯЙСТВЕННЫЙ ПРОИЗВОДСТВЕННЫЙ КООПЕРАТИВ<<АГРО-МОТОЛЬ>>"
    },
    "298303": {
      "id": 298303,
      "name": null,
      "type": 2,
      "description": "НАРОЧЬ",
      "country": "BELARUS",
      "lat": "54.9222222",
      "lng": "26.6994444",
      "declination": null,
      "altitude": null,
      "runways": null,
      "dataType": "airstrip",
      "translit": null,
      "character": "ВЕРТОЛЕТЫ ДО 4000 КГ",
      "host": "ООО <<ДЖЕНЕРАЛ ЛАЙН>>"
    },
    "298304": {
      "id": 298304,
      "name": null,
      "type": 2,
      "description": "ОГАРЕВИЧИ",
      "country": "BELARUS",
      "lat": "52.7716667",
      "lng": "26.48",
      "declination": null,
      "altitude": null,
      "runways": null,
      "dataType": "airstrip",
      "translit": null,
      "character": "АН-2 ВС ДО 5250 КГ",
      "host": "ГАНЦЕВИЧСКИЙ РАЙОННЫЙ АГРОПРОМЫШЛЕННЫЙ КОМБИНАТ"
    },
    "298305": {
      "id": 298305,
      "name": null,
      "type": 2,
      "description": "ОМЕЛЬНАЯ",
      "country": "BELARUS",
      "lat": "52.49",
      "lng": "25.68",
      "declination": null,
      "altitude": null,
      "runways": null,
      "dataType": "airstrip",
      "translit": null,
      "character": "АН-2 ВС ДО 5250 КГ",
      "host": "СЕЛЬСКОХОЗЯЙСТВЕННЫЙ ПРОИЗВОДСТВЕННЫЙ КООПЕРАТИВ <<МИЧУРИНСК>>"
    },
    "298306": {
      "id": 298306,
      "name": null,
      "type": 2,
      "description": "ОРЕХОВСКИЙ",
      "country": "BELARUS",
      "lat": "51.985",
      "lng": "24.7016667",
      "declination": null,
      "altitude": null,
      "runways": null,
      "dataType": "airstrip",
      "translit": null,
      "character": "АН-2 ВС ДО 5250 КГ",
      "host": "ОАО<<ДНЕПРО-БУГСКИЙ>>"
    },
    "298307": {
      "id": 298307,
      "name": null,
      "type": 2,
      "description": "ПАРОХОНСК",
      "country": "BELARUS",
      "lat": "52.215",
      "lng": "26.4266667",
      "declination": null,
      "altitude": null,
      "runways": null,
      "dataType": "airstrip",
      "translit": null,
      "character": "АН-2 ВС ДО 5250 КГ",
      "host": "АГРОКОМБИНАТ <<ПОЛЕСЬЕ>>"
    },
    "298308": {
      "id": 298308,
      "name": null,
      "type": 2,
      "description": "РАЗДЯЛОВИЧИ",
      "country": "BELARUS",
      "lat": "52.6033333",
      "lng": "26.1883333",
      "declination": null,
      "altitude": null,
      "runways": null,
      "dataType": "airstrip",
      "translit": null,
      "character": "АН-2 ВС ДО 5250 КГ",
      "host": "СЕЛЬСКОХОЗЯЙСТВЕННЫЙ ПРОИЗВОДСТВЕННЫЙ КООПЕРАТИВ <<РАЗДЯЛОВИЧИ>>"
    },
    "298309": {
      "id": 298309,
      "name": null,
      "type": 2,
      "description": "ХВОЕЦКОЕ",
      "country": "BELARUS",
      "lat": "52.2233333",
      "lng": "26.6916667",
      "declination": null,
      "altitude": null,
      "runways": null,
      "dataType": "airstrip",
      "translit": null,
      "character": "АН-2 ВС ДО 5250 КГ",
      "host": "СЕЛЬСКОХОЗЯЙСТВЕННЫЙ ПРОИЗВОДСТВЕННЫЙ КООПЕРАТИВ <<ХВОЕЦКОЕ>>"
    },
    "298310": {
      "id": 298310,
      "name": null,
      "type": 2,
      "description": "ХОМСК",
      "country": "BELARUS",
      "lat": "52.355",
      "lng": "25.1983333",
      "declination": null,
      "altitude": null,
      "runways": null,
      "dataType": "airstrip",
      "translit": null,
      "character": "АН-2 ВС ДО 5250 КГ",
      "host": "КОМБИКОРМОВЫЙ ЗАВОД"
    },
    "298311": {
      "id": 298311,
      "name": null,
      "type": 2,
      "description": "АНТОНИШКИ",
      "country": "BELARUS",
      "lat": "53.8638889",
      "lng": "27.3972222",
      "declination": null,
      "altitude": null,
      "runways": null,
      "dataType": "airstrip",
      "translit": null,
      "character": "СВЕРХЛЕГКИХ И ЛЕГКИХ ВЕРТОЛЕТОВ  ДО 3200 КГ, ДНЕМ В ВМУ;                                                                                                                                                                                                                              МРПИ",
      "host": "ООО <<ТАБАК-ИНВЕСТ>>"
    },
    "298312": {
      "id": 298312,
      "name": null,
      "type": 2,
      "description": "КИРОВСК",
      "country": "BELARUS",
      "lat": "53.2497222",
      "lng": "29.4922222",
      "declination": null,
      "altitude": null,
      "runways": null,
      "dataType": "airstrip",
      "translit": null,
      "character": "САМОЛЕТ :АН-2,ВЕРТАЛЕТЫ:МИ-2,МИ-8 ;ВС ДО 5250 КГ",
      "host": "СЕЛЬСКОХОЗЯЙСТВЕННЫЙ ПРОИЗВОДСТВЕННЫЙ КООПЕРАТИВ <<РАССВЕТ>> ИМЕНИ  К.П. ОРЛОВСКОГО"
    },
    "298313": {
      "id": 298313,
      "name": null,
      "type": 2,
      "description": "ЗЯБРОВКА",
      "country": "BELARUS",
      "lat": "52.2997222",
      "lng": "31.165",
      "declination": null,
      "altitude": null,
      "runways": null,
      "dataType": "airstrip",
      "translit": null,
      "character": "ЭКСПЛУАТАЦИЯ ВС ДО 11Т: L410,АН-2,ЯК-52, (С МАГНИТНЫМИ КУРСОМИ ВЗЛЕТА И ПОСАДКИ 103 ИЛИ 283);ДЛЯ  ВЕРТОЛЕТОВ ВСЕХ ТИПОВ И СЛА (С ЛЮБЫМ ВЗЛЕТНО- ПОСАДОЧНЫМ КУРСОМ)",
      "host": "ГОМЕЛЬСКОГО РАЙЖИЛКОМХОЗА"
    },
    "298314": {
      "id": 298314,
      "name": null,
      "type": 2,
      "description": "ЕЛЬНИЦА",
      "country": "BELARUS",
      "lat": "53.8336111",
      "lng": "27.7333333",
      "declination": null,
      "altitude": null,
      "runways": null,
      "dataType": "airstrip",
      "translit": null,
      "character": "ВСЕ ТИПЫ С МАКС МАССОЙ ДО 3200КГ",
      "host": "ОДО <<АНТЕЛЬ>>"
    }
  },
  "restrictions": {},
  "points": {
    "25099": {
      "id": 25099,
      "name": "MNS",
      "lat": 53.885,
      "lng": 28.0216667,
      "description": "МИНСК-2 ВОР/ДМЕ",
      "routes": [
        {
          "name": "L748",
          "id": 101603,
          "translit": "Л748",
          "dataType": "routeAW"
        },
        {
          "name": "L999",
          "id": 101607,
          "translit": "Л999",
          "dataType": "routeAW"
        },
        {
          "name": "M854",
          "id": 101609,
          "translit": "М854",
          "dataType": "routeAW"
        },
        {
          "name": "M863",
          "id": 101612,
          "translit": "М863",
          "dataType": "routeAW"
        },
        {
          "name": "P987",
          "id": 101632,
          "translit": "П987",
          "dataType": "routeAW"
        },
        {
          "name": "T117",
          "id": 101633,
          "translit": "Т117",
          "dataType": "routeAW"
        },
        {
          "name": "T52",
          "id": 101642,
          "translit": "Т52",
          "dataType": "routeAW"
        }
      ],
      "dataType": "pointVHF",
      "translit": null,
      "type": 1
    },
    "25100": {
      "id": 25100,
      "name": "BERIS",
      "lat": 54.0733333,
      "lng": 28.91,
      "description": null,
      "routes": null,
      "dataType": "pointAW",
      "translit": "БЕРИС",
      "type": 3
    },
    "25101": {
      "id": 25101,
      "name": "DEDOK",
      "lat": 54.035,
      "lng": 29.3033333,
      "description": null,
      "routes": null,
      "dataType": "pointAW",
      "translit": "ДЕДОК",
      "type": 3
    },
    "25102": {
      "id": 25102,
      "name": "MGL",
      "lat": 53.9533333,
      "lng": 30.095,
      "description": "MAHILIOU",
      "routes": [
        {
          "name": "H83",
          "id": 101553,
          "translit": "Х83",
          "dataType": "routeAW"
        }
      ],
      "dataType": "pointVHF",
      "translit": null,
      "type": 1
    },
    "25103": {
      "id": 25103,
      "name": "SLEDA",
      "lat": 53.5516667,
      "lng": 30.435,
      "description": null,
      "routes": [
        {
          "name": "H83",
          "id": 101553,
          "translit": "Х83",
          "dataType": "routeAW"
        }
      ],
      "dataType": "pointAW",
      "translit": "СЛЕДА",
      "type": 3
    },
    "25104": {
      "id": 25104,
      "name": "MAMIN",
      "lat": 52.9583333,
      "lng": 30.9383333,
      "description": null,
      "routes": [
        {
          "name": "H83",
          "id": 101553,
          "translit": "Х83",
          "dataType": "routeAW"
        },
        {
          "name": "M856",
          "id": 101610,
          "translit": "М856",
          "dataType": "routeAW"
        }
      ],
      "dataType": "pointAW",
      "translit": "МАМИН",
      "type": 3
    },
    "25105": {
      "id": 25105,
      "name": "GOL",
      "lat": 52.52,
      "lng": 31.0516667,
      "description": "ГОМЕЛЬ ВОР/ДМЕ",
      "routes": [
        {
          "name": "H83",
          "id": 101553,
          "translit": "Х83",
          "dataType": "routeAW"
        },
        {
          "name": "M856",
          "id": 101610,
          "translit": "М856",
          "dataType": "routeAW"
        },
        {
          "name": "T535",
          "id": 101644,
          "translit": "Т535",
          "dataType": "routeAW"
        },
        {
          "name": "Z653",
          "id": 101657,
          "translit": "З653",
          "dataType": "routeAW"
        }
      ],
      "dataType": "pointVHF",
      "translit": null,
      "type": 1
    },
    "25106": {
      "id": 25106,
      "name": "GRD",
      "lat": 53.6066667,
      "lng": 24.055,
      "description": "ГРОДНО ВОР/ДМЕ",
      "routes": [
        {
          "name": "H84",
          "id": 101554,
          "translit": "Х84",
          "dataType": "routeAW"
        },
        {
          "name": "L32",
          "id": 101599,
          "translit": "Л32",
          "dataType": "routeAW"
        },
        {
          "name": "L979",
          "id": 101606,
          "translit": "Л979",
          "dataType": "routeAW"
        },
        {
          "name": "M861",
          "id": 101611,
          "translit": "М861",
          "dataType": "routeAW"
        },
        {
          "name": "N616",
          "id": 101620,
          "translit": "Н616",
          "dataType": "routeAW"
        },
        {
          "name": "T117",
          "id": 101633,
          "translit": "Т117",
          "dataType": "routeAW"
        },
        {
          "name": "T509",
          "id": 101641,
          "translit": "Т509",
          "dataType": "routeAW"
        }
      ],
      "dataType": "pointVHF",
      "translit": null,
      "type": 1
    },
    "25107": {
      "id": 25107,
      "name": "GRINA",
      "lat": 53.0216667,
      "lng": 24.1533333,
      "description": "ГРИНА",
      "routes": [
        {
          "name": "H84",
          "id": 101554,
          "translit": "Х84",
          "dataType": "routeAW"
        }
      ],
      "dataType": "pointAW",
      "translit": "ГРИНА",
      "type": 3
    },
    "25108": {
      "id": 25108,
      "name": "NELIM",
      "lat": 52.9433333,
      "lng": 24.165,
      "description": null,
      "routes": [
        {
          "name": "H84",
          "id": 101554,
          "translit": "Х84",
          "dataType": "routeAW"
        },
        {
          "name": "T174",
          "id": 101634,
          "translit": "Т174",
          "dataType": "routeAW"
        }
      ],
      "dataType": "pointAW",
      "translit": "НЕЛИМ",
      "type": 3
    },
    "25109": {
      "id": 25109,
      "name": "SURUG",
      "lat": 52.56,
      "lng": 24.2233333,
      "description": null,
      "routes": [
        {
          "name": "H84",
          "id": 101554,
          "translit": "Х84",
          "dataType": "routeAW"
        },
        {
          "name": "Z367",
          "id": 101652,
          "translit": "З367",
          "dataType": "routeAW"
        },
        {
          "name": "Z368",
          "id": 101653,
          "translit": "З368",
          "dataType": "routeAW"
        }
      ],
      "dataType": "pointAW",
      "translit": "СУРУГ",
      "type": 3
    },
    "25110": {
      "id": 25110,
      "name": "BRT",
      "lat": 52.11,
      "lng": 23.8883333,
      "description": "БРЕСТ ВОР/ДМЕ",
      "routes": [
        {
          "name": "H84",
          "id": 101554,
          "translit": "Х84",
          "dataType": "routeAW"
        },
        {
          "name": "L856",
          "id": 101605,
          "translit": "Л856",
          "dataType": "routeAW"
        },
        {
          "name": "Z369",
          "id": 101654,
          "translit": "З369",
          "dataType": "routeAW"
        }
      ],
      "dataType": "pointVHF",
      "translit": null,
      "type": 1
    },
    "25111": {
      "id": 25111,
      "name": "ZAGOR",
      "lat": 54.005,
      "lng": 27.335,
      "description": null,
      "routes": null,
      "dataType": "pointP",
      "translit": null,
      "type": 0
    },
    "25112": {
      "id": 25112,
      "name": "MASLO",
      "lat": 54.095,
      "lng": 27.5333333,
      "description": null,
      "routes": null,
      "dataType": "pointP",
      "translit": null,
      "type": 0
    },
    "25113": {
      "id": 25113,
      "name": "LOGOS",
      "lat": 54.2016667,
      "lng": 27.8516667,
      "description": null,
      "routes": null,
      "dataType": "pointP",
      "translit": null,
      "type": 0
    },
    "25114": {
      "id": 25114,
      "name": "LUKOM",
      "lat": 54.655,
      "lng": 29.1433333,
      "description": null,
      "routes": null,
      "dataType": "pointP",
      "translit": null,
      "type": 0
    },
    "25115": {
      "id": 25115,
      "name": "SENNO",
      "lat": 54.8133333,
      "lng": 29.72,
      "description": null,
      "routes": null,
      "dataType": "pointP",
      "translit": null,
      "type": 0
    },
    "25116": {
      "id": 25116,
      "name": "ZAMOS",
      "lat": 55.0133333,
      "lng": 30.1783333,
      "description": null,
      "routes": null,
      "dataType": "pointP",
      "translit": null,
      "type": 0
    },
    "25117": {
      "id": 25117,
      "name": "MALIN",
      "lat": 53.8366667,
      "lng": 27.47,
      "description": null,
      "routes": null,
      "dataType": "pointP",
      "translit": null,
      "type": 0
    },
    "25118": {
      "id": 25118,
      "name": "FANIP",
      "lat": 53.745,
      "lng": 27.3366667,
      "description": null,
      "routes": null,
      "dataType": "pointP",
      "translit": null,
      "type": 0
    },
    "25119": {
      "id": 25119,
      "name": "STOLB",
      "lat": 53.4833333,
      "lng": 26.7583333,
      "description": null,
      "routes": null,
      "dataType": "pointP",
      "translit": null,
      "type": 0
    },
    "25120": {
      "id": 25120,
      "name": "MIRNA",
      "lat": 53.4016667,
      "lng": 26.4,
      "description": null,
      "routes": null,
      "dataType": "pointP",
      "translit": null,
      "type": 0
    },
    "25121": {
      "id": 25121,
      "name": "RUSIN",
      "lat": 53.0866667,
      "lng": 26.1133333,
      "description": null,
      "routes": null,
      "dataType": "pointP",
      "translit": null,
      "type": 0
    },
    "25122": {
      "id": 25122,
      "name": "KOSSO",
      "lat": 52.6516667,
      "lng": 25.225,
      "description": null,
      "routes": null,
      "dataType": "pointP",
      "translit": null,
      "type": 0
    },
    "25123": {
      "id": 25123,
      "name": "RETOK",
      "lat": 52.5666667,
      "lng": 25.1383333,
      "description": null,
      "routes": null,
      "dataType": "pointP",
      "translit": null,
      "type": 0
    },
    "25124": {
      "id": 25124,
      "name": "BEREZ",
      "lat": 52.505,
      "lng": 25,
      "description": null,
      "routes": null,
      "dataType": "pointP",
      "translit": null,
      "type": 0
    },
    "25125": {
      "id": 25125,
      "name": "BUKAT",
      "lat": 52.11,
      "lng": 24.075,
      "description": null,
      "routes": null,
      "dataType": "pointP",
      "translit": null,
      "type": 0
    },
    "25126": {
      "id": 25126,
      "name": "LIDIM",
      "lat": 52.1583333,
      "lng": 23.9033333,
      "description": null,
      "routes": null,
      "dataType": "pointP",
      "translit": null,
      "type": 0
    },
    "25127": {
      "id": 25127,
      "name": "PELIM",
      "lat": 52.3166667,
      "lng": 23.9216667,
      "description": null,
      "routes": null,
      "dataType": "pointP",
      "translit": null,
      "type": 0
    },
    "25128": {
      "id": 25128,
      "name": "POPEL",
      "lat": 52.7516667,
      "lng": 24.095,
      "description": null,
      "routes": null,
      "dataType": "pointP",
      "translit": null,
      "type": 0
    },
    "25129": {
      "id": 25129,
      "name": "ZILOW",
      "lat": 53.17,
      "lng": 24.2433333,
      "description": null,
      "routes": null,
      "dataType": "pointP",
      "translit": null,
      "type": 0
    },
    "25130": {
      "id": 25130,
      "name": "KUHAR",
      "lat": 53.425,
      "lng": 24.1333333,
      "description": null,
      "routes": null,
      "dataType": "pointP",
      "translit": null,
      "type": 0
    },
    "25131": {
      "id": 25131,
      "name": "RAKIT",
      "lat": 53.5883333,
      "lng": 24.1333333,
      "description": null,
      "routes": null,
      "dataType": "pointP",
      "translit": null,
      "type": 0
    },
    "25132": {
      "id": 25132,
      "name": "MOSTO",
      "lat": 53.4283333,
      "lng": 24.545,
      "description": null,
      "routes": null,
      "dataType": "pointP",
      "translit": null,
      "type": 0
    },
    "25133": {
      "id": 25133,
      "name": "WISOK",
      "lat": 53.2466667,
      "lng": 25.6133333,
      "description": null,
      "routes": null,
      "dataType": "pointP",
      "translit": null,
      "type": 0
    },
    "25134": {
      "id": 25134,
      "name": "DUBRA",
      "lat": 53.9966667,
      "lng": 30.1333333,
      "description": null,
      "routes": null,
      "dataType": "pointP",
      "translit": null,
      "type": 0
    },
    "25135": {
      "id": 25135,
      "name": "BULAN",
      "lat": 54.2483333,
      "lng": 30.1783333,
      "description": null,
      "routes": null,
      "dataType": "pointP",
      "translit": null,
      "type": 0
    },
    "25136": {
      "id": 25136,
      "name": "KOPAS",
      "lat": 54.3216667,
      "lng": 30.275,
      "description": null,
      "routes": null,
      "dataType": "pointP",
      "translit": null,
      "type": 0
    },
    "25137": {
      "id": 25137,
      "name": "PROKI",
      "lat": 54.385,
      "lng": 30.2866667,
      "description": null,
      "routes": null,
      "dataType": "pointP",
      "translit": null,
      "type": 0
    },
    "25138": {
      "id": 25138,
      "name": "WEROW",
      "lat": 54.495,
      "lng": 30.3033333,
      "description": null,
      "routes": null,
      "dataType": "pointP",
      "translit": null,
      "type": 0
    },
    "25139": {
      "id": 25139,
      "name": "KOPTI",
      "lat": 55.0583333,
      "lng": 30.3533333,
      "description": null,
      "routes": null,
      "dataType": "pointP",
      "translit": null,
      "type": 0
    },
    "25140": {
      "id": 25140,
      "name": "GOLUB",
      "lat": 53.9516667,
      "lng": 29.9883333,
      "description": null,
      "routes": null,
      "dataType": "pointP",
      "translit": null,
      "type": 0
    },
    "25141": {
      "id": 25141,
      "name": "GIRIN",
      "lat": 53.4233333,
      "lng": 29.845,
      "description": null,
      "routes": null,
      "dataType": "pointP",
      "translit": null,
      "type": 0
    },
    "25142": {
      "id": 25142,
      "name": "KIROW",
      "lat": 53.25,
      "lng": 29.5,
      "description": null,
      "routes": null,
      "dataType": "pointP",
      "translit": null,
      "type": 0
    },
    "25143": {
      "id": 25143,
      "name": "TIHIN",
      "lat": 52.625,
      "lng": 30.7816667,
      "description": null,
      "routes": null,
      "dataType": "pointP",
      "translit": null,
      "type": 0
    },
    "25144": {
      "id": 25144,
      "name": "GALSI",
      "lat": 53.34,
      "lng": 30.9883333,
      "description": null,
      "routes": null,
      "dataType": "pointP",
      "translit": null,
      "type": 0
    },
    "25145": {
      "id": 25145,
      "name": "SLOWO",
      "lat": 53.4416667,
      "lng": 31,
      "description": null,
      "routes": null,
      "dataType": "pointP",
      "translit": null,
      "type": 0
    },
    "25146": {
      "id": 25146,
      "name": "USTIK",
      "lat": 53.72,
      "lng": 30.81,
      "description": null,
      "routes": null,
      "dataType": "pointP",
      "translit": null,
      "type": 0
    },
    "25147": {
      "id": 25147,
      "name": "SELET",
      "lat": 54.2716667,
      "lng": 30.6666667,
      "description": null,
      "routes": null,
      "dataType": "pointP",
      "translit": null,
      "type": 0
    },
    "25148": {
      "id": 25148,
      "name": "ERMOL",
      "lat": 54.3783333,
      "lng": 30.6516667,
      "description": null,
      "routes": null,
      "dataType": "pointP",
      "translit": null,
      "type": 0
    },
    "25149": {
      "id": 25149,
      "name": "NOWSE",
      "lat": 55.0233333,
      "lng": 30.5783333,
      "description": null,
      "routes": null,
      "dataType": "pointP",
      "translit": null,
      "type": 0
    },
    "25150": {
      "id": 25150,
      "name": "MANUL",
      "lat": 55.2066667,
      "lng": 30.5383333,
      "description": null,
      "routes": null,
      "dataType": "pointP",
      "translit": null,
      "type": 0
    },
    "25151": {
      "id": 25151,
      "name": "OLAGO",
      "lat": 55.8,
      "lng": 30.4916667,
      "description": null,
      "routes": null,
      "dataType": "pointP",
      "translit": null,
      "type": 0
    },
    "25152": {
      "id": 25152,
      "name": "OSTRO",
      "lat": 52.5133333,
      "lng": 30.865,
      "description": null,
      "routes": null,
      "dataType": "pointP",
      "translit": null,
      "type": 0
    },
    "25153": {
      "id": 25153,
      "name": "SLAWA",
      "lat": 52.465,
      "lng": 29.6366667,
      "description": null,
      "routes": null,
      "dataType": "pointP",
      "translit": null,
      "type": 0
    },
    "25154": {
      "id": 25154,
      "name": "SAWIN",
      "lat": 52.4183333,
      "lng": 29.0583333,
      "description": null,
      "routes": null,
      "dataType": "pointP",
      "translit": null,
      "type": 0
    },
    "25155": {
      "id": 25155,
      "name": "GOSTI",
      "lat": 52.0883333,
      "lng": 27.45,
      "description": null,
      "routes": null,
      "dataType": "pointP",
      "translit": null,
      "type": 0
    },
    "25156": {
      "id": 25156,
      "name": "PINSK",
      "lat": 52.11,
      "lng": 26.1066667,
      "description": null,
      "routes": null,
      "dataType": "pointP",
      "translit": null,
      "type": 0
    },
    "25157": {
      "id": 25157,
      "name": "IWANO",
      "lat": 52.1483333,
      "lng": 25.5366667,
      "description": null,
      "routes": null,
      "dataType": "pointP",
      "translit": null,
      "type": 0
    },
    "25158": {
      "id": 25158,
      "name": "DROGI",
      "lat": 52.115,
      "lng": 24.9916667,
      "description": null,
      "routes": null,
      "dataType": "pointP",
      "translit": null,
      "type": 0
    },
    "25159": {
      "id": 25159,
      "name": "KALON",
      "lat": 52.5816667,
      "lng": 28.2216667,
      "description": null,
      "routes": null,
      "dataType": "pointP",
      "translit": null,
      "type": 0
    },
    "25160": {
      "id": 25160,
      "name": "SOLIG",
      "lat": 52.7866667,
      "lng": 27.5416667,
      "description": null,
      "routes": null,
      "dataType": "pointP",
      "translit": null,
      "type": 0
    },
    "25161": {
      "id": 25161,
      "name": "GOLUN",
      "lat": 52.9,
      "lng": 26.5283333,
      "description": null,
      "routes": null,
      "dataType": "pointP",
      "translit": null,
      "type": 0
    },
    "25162": {
      "id": 25162,
      "name": "BOROK",
      "lat": 53.5083333,
      "lng": 28.6383333,
      "description": null,
      "routes": null,
      "dataType": "pointP",
      "translit": null,
      "type": 0
    },
    "25163": {
      "id": 25163,
      "name": "KLITI",
      "lat": 53.4916667,
      "lng": 29.3333333,
      "description": null,
      "routes": null,
      "dataType": "pointP",
      "translit": null,
      "type": 0
    },
    "25164": {
      "id": 25164,
      "name": "BELLA",
      "lat": 53.7716667,
      "lng": 31.6666667,
      "description": null,
      "routes": null,
      "dataType": "pointP",
      "translit": null,
      "type": 0
    },
    "25165": {
      "id": 25165,
      "name": "WILSI",
      "lat": 53.78,
      "lng": 30.3633333,
      "description": null,
      "routes": null,
      "dataType": "pointP",
      "translit": null,
      "type": 0
    },
    "25166": {
      "id": 25166,
      "name": "BUNIK",
      "lat": 53.845,
      "lng": 30.2633333,
      "description": null,
      "routes": null,
      "dataType": "pointP",
      "translit": null,
      "type": 0
    },
    "25167": {
      "id": 25167,
      "name": "TROST",
      "lat": 53.8533333,
      "lng": 27.6983333,
      "description": null,
      "routes": null,
      "dataType": "pointP",
      "translit": null,
      "type": 0
    },
    "25168": {
      "id": 25168,
      "name": "LOZOW",
      "lat": 53.8716667,
      "lng": 27.9416667,
      "description": null,
      "routes": null,
      "dataType": "pointP",
      "translit": null,
      "type": 0
    },
    "25169": {
      "id": 25169,
      "name": "DWINA",
      "lat": 55.1483333,
      "lng": 30.2166667,
      "description": null,
      "routes": null,
      "dataType": "pointP",
      "translit": null,
      "type": 0
    },
    "25170": {
      "id": 25170,
      "name": "SUMIL",
      "lat": 55.305,
      "lng": 29.6216667,
      "description": null,
      "routes": null,
      "dataType": "pointP",
      "translit": null,
      "type": 0
    },
    "25171": {
      "id": 25171,
      "name": "WETRI",
      "lat": 55.485,
      "lng": 28.4933333,
      "description": null,
      "routes": null,
      "dataType": "pointP",
      "translit": null,
      "type": 0
    },
    "25172": {
      "id": 25172,
      "name": "MIORA",
      "lat": 55.62,
      "lng": 27.6166667,
      "description": null,
      "routes": null,
      "dataType": "pointP",
      "translit": null,
      "type": 0
    },
    "25173": {
      "id": 25173,
      "name": "DUBIN",
      "lat": 55.8133333,
      "lng": 26.98,
      "description": null,
      "routes": null,
      "dataType": "pointP",
      "translit": null,
      "type": 0
    },
    "25174": {
      "id": 25174,
      "name": "SOSNA",
      "lat": 55.085,
      "lng": 30.1716667,
      "description": null,
      "routes": null,
      "dataType": "pointP",
      "translit": null,
      "type": 0
    },
    "25175": {
      "id": 25175,
      "name": "LEPEL",
      "lat": 55.0316667,
      "lng": 28.235,
      "description": null,
      "routes": null,
      "dataType": "pointP",
      "translit": null,
      "type": 0
    },
    "25176": {
      "id": 25176,
      "name": "KOSTA",
      "lat": 54.9883333,
      "lng": 27.1933333,
      "description": null,
      "routes": null,
      "dataType": "pointP",
      "translit": null,
      "type": 0
    },
    "25177": {
      "id": 25177,
      "name": "LAVAR",
      "lat": 54.6916667,
      "lng": 25.7383333,
      "description": null,
      "routes": null,
      "dataType": "pointP",
      "translit": null,
      "type": 0
    },
    "25178": {
      "id": 25178,
      "name": "OBUHO",
      "lat": 53.6233333,
      "lng": 24.1283333,
      "description": null,
      "routes": null,
      "dataType": "pointP",
      "translit": null,
      "type": 0
    },
    "25179": {
      "id": 25179,
      "name": "OSTRI",
      "lat": 53.7316667,
      "lng": 24.53,
      "description": null,
      "routes": null,
      "dataType": "pointP",
      "translit": null,
      "type": 0
    },
    "25181": {
      "id": 25181,
      "name": "KREWO",
      "lat": 54.3133333,
      "lng": 26.2816667,
      "description": null,
      "routes": null,
      "dataType": "pointP",
      "translit": null,
      "type": 0
    },
    "25182": {
      "id": 25182,
      "name": "BRASL",
      "lat": 55.6383333,
      "lng": 27.04,
      "description": null,
      "routes": null,
      "dataType": "pointP",
      "translit": null,
      "type": 0
    },
    "25183": {
      "id": 25183,
      "name": "DUKAT",
      "lat": 54.4716667,
      "lng": 25.615,
      "description": null,
      "routes": [
        {
          "name": "КХ20",
          "id": 101673,
          "translit": "KH20",
          "dataType": "routeMVL"
        },
        {
          "name": "КХ20",
          "id": 101673,
          "translit": "KH20",
          "dataType": "routeMVL"
        }
      ],
      "dataType": "pointMVL",
      "translit": "ДУКАТ",
      "type": 8
    },
    "25184": {
      "id": 25184,
      "name": "MILOW",
      "lat": 53.7466667,
      "lng": 28.0116667,
      "description": null,
      "routes": null,
      "dataType": "pointP",
      "translit": null,
      "type": 0
    },
    "25185": {
      "id": 25185,
      "name": "IWANI",
      "lat": 53.665,
      "lng": 28.3333333,
      "description": null,
      "routes": null,
      "dataType": "pointP",
      "translit": null,
      "type": 0
    },
    "25186": {
      "id": 25186,
      "name": "OSIPO",
      "lat": 53.3033333,
      "lng": 28.6433333,
      "description": null,
      "routes": null,
      "dataType": "pointP",
      "translit": null,
      "type": 0
    },
    "25187": {
      "id": 25187,
      "name": "WILSA",
      "lat": 52.995,
      "lng": 28.8516667,
      "description": null,
      "routes": null,
      "dataType": "pointP",
      "translit": null,
      "type": 0
    },
    "25188": {
      "id": 25188,
      "name": "MOZIR",
      "lat": 52.0333333,
      "lng": 29.255,
      "description": null,
      "routes": null,
      "dataType": "pointP",
      "translit": null,
      "type": 0
    },
    "25189": {
      "id": 25189,
      "name": "ABROK",
      "lat": 51.5933333,
      "lng": 29.0333333,
      "description": "ABROK",
      "routes": [
        {
          "name": "КХ22",
          "id": 101675,
          "translit": "KH22",
          "dataType": "routeMVL"
        },
        {
          "name": "КХ22",
          "id": 101675,
          "translit": "KH22",
          "dataType": "routeMVL"
        }
      ],
      "dataType": "pointMVL",
      "translit": "АБРОК",
      "type": 8
    },
    "25190": {
      "id": 25190,
      "name": "OZERO",
      "lat": 53.6333333,
      "lng": 27.4566667,
      "description": null,
      "routes": null,
      "dataType": "pointP",
      "translit": null,
      "type": 0
    },
    "25191": {
      "id": 25191,
      "name": "LOSAK",
      "lat": 53.4266667,
      "lng": 27.415,
      "description": null,
      "routes": null,
      "dataType": "pointP",
      "translit": null,
      "type": 0
    },
    "25192": {
      "id": 25192,
      "name": "FLERO",
      "lat": 52.3133333,
      "lng": 27.2533333,
      "description": null,
      "routes": null,
      "dataType": "pointP",
      "translit": null,
      "type": 0
    },
    "25193": {
      "id": 25193,
      "name": "DIBON",
      "lat": 51.8933333,
      "lng": 26.1233333,
      "description": "DIBON",
      "routes": null,
      "dataType": "pointP",
      "translit": null,
      "type": 0
    },
    "25194": {
      "id": 25194,
      "name": "SOTET",
      "lat": 53.83,
      "lng": 23.5533333,
      "description": null,
      "routes": [
        {
          "name": "КХ26",
          "id": 101679,
          "translit": "KH26",
          "dataType": "routeMVL"
        },
        {
          "name": "КХ26",
          "id": 101679,
          "translit": "KH26",
          "dataType": "routeMVL"
        }
      ],
      "dataType": "pointMVL",
      "translit": "СОТЕТ",
      "type": 8
    },
    "25195": {
      "id": 25195,
      "name": "NARUZ",
      "lat": 52.8633333,
      "lng": 24.965,
      "description": null,
      "routes": null,
      "dataType": "pointP",
      "translit": null,
      "type": 0
    },
    "25196": {
      "id": 25196,
      "name": "BOGUS",
      "lat": 53.76,
      "lng": 23.9583333,
      "description": null,
      "routes": null,
      "dataType": "pointP",
      "translit": null,
      "type": 0
    },
    "25197": {
      "id": 25197,
      "name": "BAZIL",
      "lat": 53.81,
      "lng": 23.71,
      "description": null,
      "routes": null,
      "dataType": "pointP",
      "translit": null,
      "type": 0
    },
    "25198": {
      "id": 25198,
      "name": "TUMKI",
      "lat": 53.9483333,
      "lng": 23.8983333,
      "description": null,
      "routes": [
        {
          "name": "КХ25",
          "id": 101678,
          "translit": "KH25",
          "dataType": "routeMVL"
        },
        {
          "name": "КХ25",
          "id": 101678,
          "translit": "KH25",
          "dataType": "routeMVL"
        }
      ],
      "dataType": "pointMVL",
      "translit": "ТУМКИ",
      "type": 8
    },
    "25199": {
      "id": 25199,
      "name": "IRWIN",
      "lat": 53.71,
      "lng": 28.4316667,
      "description": null,
      "routes": null,
      "dataType": "pointP",
      "translit": null,
      "type": 0
    },
    "25200": {
      "id": 25200,
      "name": "DUBOR",
      "lat": 53.865,
      "lng": 29.3216667,
      "description": null,
      "routes": null,
      "dataType": "pointP",
      "translit": null,
      "type": 0
    },
    "25201": {
      "id": 25201,
      "name": "BELOE",
      "lat": 53.7833333,
      "lng": 24.165,
      "description": null,
      "routes": null,
      "dataType": "pointP",
      "translit": null,
      "type": 0
    },
    "25202": {
      "id": 25202,
      "name": "PEMIP",
      "lat": 53.1283333,
      "lng": 32.2466667,
      "description": "PEMIP",
      "routes": null,
      "dataType": "pointP",
      "translit": null,
      "type": 0
    },
    "25203": {
      "id": 25203,
      "name": "SOLOD",
      "lat": 54.18,
      "lng": 29.8733333,
      "description": null,
      "routes": null,
      "dataType": "pointP",
      "translit": null,
      "type": 0
    },
    "25204": {
      "id": 25204,
      "name": "BASRO",
      "lat": 54.2666667,
      "lng": 31.3166667,
      "description": null,
      "routes": null,
      "dataType": "pointP",
      "translit": null,
      "type": 0
    },
    "25205": {
      "id": 25205,
      "name": "BATIG",
      "lat": 55.4316667,
      "lng": 30.9133333,
      "description": "BATIG",
      "routes": null,
      "dataType": "pointP",
      "translit": null,
      "type": 0
    },
    "25207": {
      "id": 25207,
      "name": "PODIL",
      "lat": 55.1366667,
      "lng": 26.475,
      "description": null,
      "routes": null,
      "dataType": "pointP",
      "translit": null,
      "type": 0
    },
    "25208": {
      "id": 25208,
      "name": "POKOL",
      "lat": 52.4716667,
      "lng": 31.0466667,
      "description": null,
      "routes": null,
      "dataType": "pointP",
      "translit": null,
      "type": 0
    },
    "25209": {
      "id": 25209,
      "name": "KLIMA",
      "lat": 52.2866667,
      "lng": 31.08,
      "description": null,
      "routes": null,
      "dataType": "pointP",
      "translit": null,
      "type": 0
    },
    "25210": {
      "id": 25210,
      "name": "WELBO",
      "lat": 52.0283333,
      "lng": 29.925,
      "description": null,
      "routes": null,
      "dataType": "pointP",
      "translit": null,
      "type": 0
    },
    "25211": {
      "id": 25211,
      "name": "LOVIK",
      "lat": 52.0833333,
      "lng": 31.0166667,
      "description": "LOVIK",
      "routes": null,
      "dataType": "pointP",
      "translit": null,
      "type": 0
    },
    "25212": {
      "id": 25212,
      "name": "KUNTO",
      "lat": 52.5733333,
      "lng": 31.0333333,
      "description": null,
      "routes": null,
      "dataType": "pointP",
      "translit": null,
      "type": 0
    },
    "25213": {
      "id": 25213,
      "name": "GIKSU",
      "lat": 52.77,
      "lng": 31.5966667,
      "description": "GIKSU",
      "routes": null,
      "dataType": "pointP",
      "translit": null,
      "type": 0
    },
    "25214": {
      "id": 25214,
      "name": "ORESK",
      "lat": 53.995,
      "lng": 27.97,
      "description": null,
      "routes": null,
      "dataType": "pointP",
      "translit": null,
      "type": 0
    },
    "25215": {
      "id": 25215,
      "name": "PRUDA",
      "lat": 52.5533333,
      "lng": 24.4766667,
      "description": null,
      "routes": null,
      "dataType": "pointP",
      "translit": null,
      "type": 0
    },
    "25216": {
      "id": 25216,
      "name": "VALOL",
      "lat": 52.225,
      "lng": 23.4683333,
      "description": "VALOL",
      "routes": null,
      "dataType": "pointP",
      "translit": null,
      "type": 0
    },
    "25218": {
      "id": 25218,
      "name": "MOTKA",
      "lat": 52.1816667,
      "lng": 23.63,
      "description": null,
      "routes": null,
      "dataType": "pointP",
      "translit": null,
      "type": 0
    },
    "25219": {
      "id": 25219,
      "name": "DROZD",
      "lat": 53.74,
      "lng": 25.3766667,
      "description": null,
      "routes": null,
      "dataType": "pointP",
      "translit": null,
      "type": 0
    },
    "25220": {
      "id": 25220,
      "name": "ROSSI",
      "lat": 53.2933333,
      "lng": 24.425,
      "description": null,
      "routes": null,
      "dataType": "pointP",
      "translit": null,
      "type": 0
    },
    "25221": {
      "id": 25221,
      "name": "RUDKA",
      "lat": 52.8516667,
      "lng": 23.9266667,
      "description": null,
      "routes": null,
      "dataType": "pointP",
      "translit": null,
      "type": 0
    },
    "25222": {
      "id": 25222,
      "name": "HOTEM",
      "lat": 55.0883333,
      "lng": 30.4733333,
      "description": null,
      "routes": null,
      "dataType": "pointP",
      "translit": null,
      "type": 0
    },
    "25223": {
      "id": 25223,
      "name": "BUMIN",
      "lat": 54.9916667,
      "lng": 30.9533333,
      "description": "BUMIN",
      "routes": null,
      "dataType": "pointP",
      "translit": null,
      "type": 0
    },
    "25224": {
      "id": 25224,
      "name": "BEREW",
      "lat": 53.64,
      "lng": 23.9733333,
      "description": null,
      "routes": null,
      "dataType": "pointP",
      "translit": null,
      "type": 0
    },
    "25225": {
      "id": 25225,
      "name": "KOROL",
      "lat": 53.6333333,
      "lng": 23.7333333,
      "description": null,
      "routes": null,
      "dataType": "pointP",
      "translit": null,
      "type": 0
    },
    "25226": {
      "id": 25226,
      "name": "BEGOM",
      "lat": 54.73,
      "lng": 28.0666667,
      "description": null,
      "routes": null,
      "dataType": "pointP",
      "translit": null,
      "type": 0
    },
    "25227": {
      "id": 25227,
      "name": "WELIK",
      "lat": 53.1933333,
      "lng": 29.3716667,
      "description": null,
      "routes": null,
      "dataType": "pointP",
      "translit": null,
      "type": 0
    },
    "25228": {
      "id": 25228,
      "name": "KRIWO",
      "lat": 53.7416667,
      "lng": 28.2266667,
      "description": null,
      "routes": null,
      "dataType": "pointP",
      "translit": null,
      "type": 0
    },
    "25229": {
      "id": 25229,
      "name": "ANTON",
      "lat": 53.8633333,
      "lng": 27.4066667,
      "description": null,
      "routes": null,
      "dataType": "pointP",
      "translit": null,
      "type": 0
    },
    "25230": {
      "id": 25230,
      "name": "KUTOR",
      "lat": 53.8516667,
      "lng": 26.425,
      "description": null,
      "routes": null,
      "dataType": "pointP",
      "translit": null,
      "type": 0
    },
    "25231": {
      "id": 25231,
      "name": "ZABOR",
      "lat": 54.555,
      "lng": 29.29,
      "description": null,
      "routes": null,
      "dataType": "pointP",
      "translit": null,
      "type": 0
    },
    "25232": {
      "id": 25232,
      "name": "LOVIK",
      "lat": 52.0833333,
      "lng": 31.0166667,
      "description": null,
      "routes": null,
      "dataType": "pointP",
      "translit": null,
      "type": 0
    },
    "25233": {
      "id": 25233,
      "name": "OGARA",
      "lat": 52.69,
      "lng": 27.24,
      "description": null,
      "routes": [
        {
          "name": "L23",
          "id": 101597,
          "translit": "Л23",
          "dataType": "routeAW"
        },
        {
          "name": "L32",
          "id": 101599,
          "translit": "Л32",
          "dataType": "routeAW"
        },
        {
          "name": "P26",
          "id": 101628,
          "translit": "П26",
          "dataType": "routeAW"
        },
        {
          "name": "T344",
          "id": 101635,
          "translit": "Т344",
          "dataType": "routeAW"
        },
        {
          "name": "Z860",
          "id": 101660,
          "translit": "З860",
          "dataType": "routeAW"
        }
      ],
      "dataType": "pointAW",
      "translit": "ОГАРА",
      "type": 3
    },
    "25234": {
      "id": 25234,
      "name": "PINUG",
      "lat": 52.9266667,
      "lng": 25.6983333,
      "description": null,
      "routes": [
        {
          "name": "L23",
          "id": 101597,
          "translit": "Л23",
          "dataType": "routeAW"
        },
        {
          "name": "L999",
          "id": 101607,
          "translit": "Л999",
          "dataType": "routeAW"
        },
        {
          "name": "T52",
          "id": 101642,
          "translit": "Т52",
          "dataType": "routeAW"
        }
      ],
      "dataType": "pointAW",
      "translit": "ПИНУГ",
      "type": 3
    },
    "25235": {
      "id": 25235,
      "name": "ADOBU",
      "lat": 53.115,
      "lng": 24.3733333,
      "description": null,
      "routes": [
        {
          "name": "L23",
          "id": 101597,
          "translit": "Л23",
          "dataType": "routeAW"
        }
      ],
      "dataType": "pointAW",
      "translit": "АДОБУ",
      "type": 3
    },
    "25236": {
      "id": 25236,
      "name": "GORAT",
      "lat": 53.1783333,
      "lng": 23.895,
      "description": null,
      "routes": [
        {
          "name": "L23",
          "id": 101597,
          "translit": "Л23",
          "dataType": "routeAW"
        },
        {
          "name": "N869",
          "id": 101624,
          "translit": "Н869",
          "dataType": "routeAW"
        },
        {
          "name": "Z737",
          "id": 101659,
          "translit": "З737",
          "dataType": "routeAW"
        }
      ],
      "dataType": "pointAW",
      "translit": "ГОРАТ",
      "type": 3
    },
    "25237": {
      "id": 25237,
      "name": "SUPEK",
      "lat": 55.5833333,
      "lng": 30.95,
      "description": null,
      "routes": [
        {
          "name": "L29",
          "id": 101598,
          "translit": "Л29",
          "dataType": "routeAW"
        }
      ],
      "dataType": "pointAW",
      "translit": "СУПЕК",
      "type": 3
    },
    "25238": {
      "id": 25238,
      "name": "TEGLU",
      "lat": 55.5016667,
      "lng": 30.43,
      "description": null,
      "routes": [
        {
          "name": "L29",
          "id": 101598,
          "translit": "Л29",
          "dataType": "routeAW"
        },
        {
          "name": "M856",
          "id": 101610,
          "translit": "М856",
          "dataType": "routeAW"
        },
        {
          "name": "P26",
          "id": 101628,
          "translit": "П26",
          "dataType": "routeAW"
        },
        {
          "name": "T487",
          "id": 101640,
          "translit": "Т487",
          "dataType": "routeAW"
        }
      ],
      "dataType": "pointAW",
      "translit": "ТЕГЛУ",
      "type": 3
    },
    "25239": {
      "id": 25239,
      "name": "LEGSI",
      "lat": 55.265,
      "lng": 28.9283333,
      "description": null,
      "routes": [
        {
          "name": "L29",
          "id": 101598,
          "translit": "Л29",
          "dataType": "routeAW"
        },
        {
          "name": "M984",
          "id": 101616,
          "translit": "М984",
          "dataType": "routeAW"
        },
        {
          "name": "N743",
          "id": 101622,
          "translit": "Н743",
          "dataType": "routeAW"
        }
      ],
      "dataType": "pointAW",
      "translit": "ЛЕГСИ",
      "type": 3
    },
    "25240": {
      "id": 25240,
      "name": "BENIM",
      "lat": 55.1466667,
      "lng": 28.2233333,
      "description": null,
      "routes": [
        {
          "name": "L29",
          "id": 101598,
          "translit": "Л29",
          "dataType": "routeAW"
        },
        {
          "name": "M997",
          "id": 101618,
          "translit": "М997",
          "dataType": "routeAW"
        },
        {
          "name": "N858",
          "id": 101623,
          "translit": "Н858",
          "dataType": "routeAW"
        }
      ],
      "dataType": "pointAW",
      "translit": "БЕНИМ",
      "type": 3
    },
    "25241": {
      "id": 25241,
      "name": "LAVAR",
      "lat": 54.6916667,
      "lng": 25.7366667,
      "description": null,
      "routes": null,
      "dataType": "pointP",
      "translit": null,
      "type": 0
    },
    "25242": {
      "id": 25242,
      "name": "SOTET",
      "lat": 53.83,
      "lng": 23.5533333,
      "description": "СОТЕТ",
      "routes": [
        {
          "name": "L32",
          "id": 101599,
          "translit": "Л32",
          "dataType": "routeAW"
        }
      ],
      "dataType": "pointAW",
      "translit": "СОТЕТ",
      "type": 3
    },
    "25243": {
      "id": 25243,
      "name": "KOMEN",
      "lat": 53.3766667,
      "lng": 25.005,
      "description": null,
      "routes": [
        {
          "name": "L32",
          "id": 101599,
          "translit": "Л32",
          "dataType": "routeAW"
        }
      ],
      "dataType": "pointAW",
      "translit": "КОМЕН",
      "type": 3
    },
    "25244": {
      "id": 25244,
      "name": "GANVI",
      "lat": 52.955,
      "lng": 26.405,
      "description": null,
      "routes": [
        {
          "name": "L32",
          "id": 101599,
          "translit": "Л32",
          "dataType": "routeAW"
        },
        {
          "name": "P727",
          "id": 101629,
          "translit": "П727",
          "dataType": "routeAW"
        }
      ],
      "dataType": "pointAW",
      "translit": "ГАНЖИ",
      "type": 3
    },
    "25245": {
      "id": 25245,
      "name": "BABUN",
      "lat": 52.1816667,
      "lng": 28.7833333,
      "description": "ПТИЧЬ",
      "routes": [
        {
          "name": "L32",
          "id": 101599,
          "translit": "Л32",
          "dataType": "routeAW"
        },
        {
          "name": "L33",
          "id": 101600,
          "translit": "Л33",
          "dataType": "routeAW"
        },
        {
          "name": "M854",
          "id": 101609,
          "translit": "М854",
          "dataType": "routeAW"
        },
        {
          "name": "N743",
          "id": 101622,
          "translit": "Н743",
          "dataType": "routeAW"
        },
        {
          "name": "T535",
          "id": 101644,
          "translit": "Т535",
          "dataType": "routeAW"
        },
        {
          "name": "Z736",
          "id": 101658,
          "translit": "З736",
          "dataType": "routeAW"
        },
        {
          "name": "Z737",
          "id": 101659,
          "translit": "З737",
          "dataType": "routeAW"
        }
      ],
      "dataType": "pointAW",
      "translit": "БАБУН",
      "type": 3
    },
    "25246": {
      "id": 25246,
      "name": "GOMAD",
      "lat": 51.8666667,
      "lng": 29.9666667,
      "description": "GOMAD",
      "routes": [
        {
          "name": "L32",
          "id": 101599,
          "translit": "Л32",
          "dataType": "routeAW"
        },
        {
          "name": "M850",
          "id": 101608,
          "translit": "М850",
          "dataType": "routeAW"
        },
        {
          "name": "P749",
          "id": 101630,
          "translit": "П749",
          "dataType": "routeAW"
        },
        {
          "name": "P851",
          "id": 101631,
          "translit": "П851",
          "dataType": "routeAW"
        },
        {
          "name": "Z653",
          "id": 101657,
          "translit": "З653",
          "dataType": "routeAW"
        }
      ],
      "dataType": "pointAW",
      "translit": "ГОМАД",
      "type": 3
    },
    "25247": {
      "id": 25247,
      "name": "KIBER",
      "lat": 51.7166667,
      "lng": 30.6333333,
      "description": null,
      "routes": [
        {
          "name": "L32",
          "id": 101599,
          "translit": "Л32",
          "dataType": "routeAW"
        },
        {
          "name": "P851",
          "id": 101631,
          "translit": "П851",
          "dataType": "routeAW"
        }
      ],
      "dataType": "pointAW",
      "translit": "КИБЕР",
      "type": 3
    },
    "25248": {
      "id": 25248,
      "name": "SOGBI",
      "lat": 54.2133333,
      "lng": 25.1983333,
      "description": null,
      "routes": [
        {
          "name": "L33",
          "id": 101600,
          "translit": "Л33",
          "dataType": "routeAW"
        },
        {
          "name": "M983",
          "id": 101615,
          "translit": "М983",
          "dataType": "routeAW"
        },
        {
          "name": "Z364",
          "id": 101650,
          "translit": "З364",
          "dataType": "routeAW"
        },
        {
          "name": "Z367",
          "id": 101652,
          "translit": "З367",
          "dataType": "routeAW"
        }
      ],
      "dataType": "pointAW",
      "translit": "СОГБИ",
      "type": 3
    },
    "25249": {
      "id": 25249,
      "name": "OSMUS",
      "lat": 53.895,
      "lng": 26.7216667,
      "description": null,
      "routes": [
        {
          "name": "L33",
          "id": 101600,
          "translit": "Л33",
          "dataType": "routeAW"
        },
        {
          "name": "M984",
          "id": 101616,
          "translit": "М984",
          "dataType": "routeAW"
        },
        {
          "name": "M996",
          "id": 101617,
          "translit": "М996",
          "dataType": "routeAW"
        },
        {
          "name": "N869",
          "id": 101624,
          "translit": "Н869",
          "dataType": "routeAW"
        },
        {
          "name": "P727",
          "id": 101629,
          "translit": "П727",
          "dataType": "routeAW"
        },
        {
          "name": "T117",
          "id": 101633,
          "translit": "Т117",
          "dataType": "routeAW"
        },
        {
          "name": "T174",
          "id": 101634,
          "translit": "Т174",
          "dataType": "routeAW"
        },
        {
          "name": "Z369",
          "id": 101654,
          "translit": "З369",
          "dataType": "routeAW"
        },
        {
          "name": "Z402",
          "id": 101655,
          "translit": "З402",
          "dataType": "routeAW"
        }
      ],
      "dataType": "pointAW",
      "translit": "ОСМУС",
      "type": 3
    },
    "25250": {
      "id": 25250,
      "name": "LUPAN",
      "lat": 53.1183333,
      "lng": 27.6783333,
      "description": null,
      "routes": [
        {
          "name": "L33",
          "id": 101600,
          "translit": "Л33",
          "dataType": "routeAW"
        },
        {
          "name": "L856",
          "id": 101605,
          "translit": "Л856",
          "dataType": "routeAW"
        }
      ],
      "dataType": "pointAW",
      "translit": "ЛУПАН",
      "type": 3
    },
    "25251": {
      "id": 25251,
      "name": "MAGEP",
      "lat": 51.9466667,
      "lng": 29.0516667,
      "description": null,
      "routes": [
        {
          "name": "L33",
          "id": 101600,
          "translit": "Л33",
          "dataType": "routeAW"
        },
        {
          "name": "P851",
          "id": 101631,
          "translit": "П851",
          "dataType": "routeAW"
        }
      ],
      "dataType": "pointAW",
      "translit": "МАГЕП",
      "type": 3
    },
    "25252": {
      "id": 25252,
      "name": "BORAT",
      "lat": 51.4666667,
      "lng": 29.5883333,
      "description": null,
      "routes": [
        {
          "name": "L33",
          "id": 101600,
          "translit": "Л33",
          "dataType": "routeAW"
        },
        {
          "name": "P987",
          "id": 101632,
          "translit": "П987",
          "dataType": "routeAW"
        },
        {
          "name": "Z653",
          "id": 101657,
          "translit": "З653",
          "dataType": "routeAW"
        }
      ],
      "dataType": "pointAW",
      "translit": "БОРАТ",
      "type": 3
    },
    "25253": {
      "id": 25253,
      "name": "ASKIL",
      "lat": 54.5033333,
      "lng": 31.0866667,
      "description": null,
      "routes": [
        {
          "name": "L735",
          "id": 101601,
          "translit": "Л735",
          "dataType": "routeAW"
        },
        {
          "name": "L736",
          "id": 101602,
          "translit": "Л736",
          "dataType": "routeAW"
        },
        {
          "name": "L979",
          "id": 101606,
          "translit": "Л979",
          "dataType": "routeAW"
        },
        {
          "name": "M863",
          "id": 101612,
          "translit": "М863",
          "dataType": "routeAW"
        },
        {
          "name": "M874",
          "id": 101614,
          "translit": "М874",
          "dataType": "routeAW"
        },
        {
          "name": "T346",
          "id": 101636,
          "translit": "Т346",
          "dataType": "routeAW"
        }
      ],
      "dataType": "pointAW",
      "translit": "АСКИЛ",
      "type": 3
    },
    "25254": {
      "id": 25254,
      "name": "RUBUN",
      "lat": 54.435,
      "lng": 26.8016667,
      "description": null,
      "routes": [
        {
          "name": "L735",
          "id": 101601,
          "translit": "Л735",
          "dataType": "routeAW"
        },
        {
          "name": "P727",
          "id": 101629,
          "translit": "П727",
          "dataType": "routeAW"
        },
        {
          "name": "T406",
          "id": 101639,
          "translit": "Т406",
          "dataType": "routeAW"
        }
      ],
      "dataType": "pointAW",
      "translit": "РУБУН",
      "type": 3
    },
    "25255": {
      "id": 25255,
      "name": "BADUS",
      "lat": 54.3883333,
      "lng": 25.5883333,
      "description": null,
      "routes": [
        {
          "name": "L735",
          "id": 101601,
          "translit": "Л735",
          "dataType": "routeAW"
        },
        {
          "name": "L748",
          "id": 101603,
          "translit": "Л748",
          "dataType": "routeAW"
        }
      ],
      "dataType": "pointAW",
      "translit": "БАДУС",
      "type": 3
    },
    "25256": {
      "id": 25256,
      "name": "PODIL",
      "lat": 55.1366667,
      "lng": 26.475,
      "description": null,
      "routes": [
        {
          "name": "L736",
          "id": 101602,
          "translit": "Л736",
          "dataType": "routeAW"
        },
        {
          "name": "M997",
          "id": 101618,
          "translit": "М997",
          "dataType": "routeAW"
        },
        {
          "name": "N623",
          "id": 101621,
          "translit": "Н623",
          "dataType": "routeAW"
        },
        {
          "name": "Y130",
          "id": 101645,
          "translit": "Ы130",
          "dataType": "routeAW"
        }
      ],
      "dataType": "pointAW",
      "translit": "ПОДИЛ",
      "type": 3
    },
    "25257": {
      "id": 25257,
      "name": "KOSAN",
      "lat": 54.775,
      "lng": 29.2783333,
      "description": "КОСЕНИЧИ",
      "routes": null,
      "dataType": "pointAW",
      "translit": "КОСАН",
      "type": 3
    },
    "25258": {
      "id": 25258,
      "name": "NOPKA",
      "lat": 54.33,
      "lng": 25.8883333,
      "description": null,
      "routes": [
        {
          "name": "L748",
          "id": 101603,
          "translit": "Л748",
          "dataType": "routeAW"
        },
        {
          "name": "M996",
          "id": 101617,
          "translit": "М996",
          "dataType": "routeAW"
        }
      ],
      "dataType": "pointAW",
      "translit": "НОПКА",
      "type": 3
    },
    "25259": {
      "id": 25259,
      "name": "KEDUG",
      "lat": 53.4883333,
      "lng": 30.8,
      "description": null,
      "routes": [
        {
          "name": "L748",
          "id": 101603,
          "translit": "Л748",
          "dataType": "routeAW"
        },
        {
          "name": "M856",
          "id": 101610,
          "translit": "М856",
          "dataType": "routeAW"
        },
        {
          "name": "T344",
          "id": 101635,
          "translit": "Т344",
          "dataType": "routeAW"
        }
      ],
      "dataType": "pointAW",
      "translit": "КЕДУГ",
      "type": 3
    },
    "25260": {
      "id": 25260,
      "name": "BUGOR",
      "lat": 53.2166667,
      "lng": 32.4666667,
      "description": "BUGOR",
      "routes": [
        {
          "name": "L748",
          "id": 101603,
          "translit": "Л748",
          "dataType": "routeAW"
        },
        {
          "name": "L749",
          "id": 101604,
          "translit": "Л749",
          "dataType": "routeAW"
        },
        {
          "name": "N9",
          "id": 101625,
          "translit": "Н9",
          "dataType": "routeAW"
        },
        {
          "name": "T117",
          "id": 101633,
          "translit": "Т117",
          "dataType": "routeAW"
        },
        {
          "name": "T509",
          "id": 101641,
          "translit": "Т509",
          "dataType": "routeAW"
        },
        {
          "name": "Y96",
          "id": 101648,
          "translit": "Ы96",
          "dataType": "routeAW"
        },
        {
          "name": "Y97",
          "id": 101649,
          "translit": "Ы97",
          "dataType": "routeAW"
        }
      ],
      "dataType": "pointAW",
      "translit": "БУГОР",
      "type": 3
    },
    "25261": {
      "id": 25261,
      "name": "LITVI",
      "lat": 54.4983333,
      "lng": 26.81,
      "description": null,
      "routes": null,
      "dataType": "pointP",
      "translit": null,
      "type": 0
    },
    "25262": {
      "id": 25262,
      "name": "TEDRO",
      "lat": 54.29,
      "lng": 27.865,
      "description": null,
      "routes": [
        {
          "name": "L749",
          "id": 101604,
          "translit": "Л749",
          "dataType": "routeAW"
        },
        {
          "name": "M854",
          "id": 101609,
          "translit": "М854",
          "dataType": "routeAW"
        },
        {
          "name": "N623",
          "id": 101621,
          "translit": "Н623",
          "dataType": "routeAW"
        }
      ],
      "dataType": "pointAW",
      "translit": "ТЕДРО",
      "type": 3
    },
    "25263": {
      "id": 25263,
      "name": "PENAT",
      "lat": 53.7816667,
      "lng": 30.1866667,
      "description": null,
      "routes": [
        {
          "name": "L749",
          "id": 101604,
          "translit": "Л749",
          "dataType": "routeAW"
        }
      ],
      "dataType": "pointAW",
      "translit": "ПЕНАТ",
      "type": 3
    },
    "25264": {
      "id": 25264,
      "name": "RALIK",
      "lat": 53.665,
      "lng": 30.6783333,
      "description": null,
      "routes": null,
      "dataType": "pointP",
      "translit": null,
      "type": 0
    },
    "25265": {
      "id": 25265,
      "name": "KOPON",
      "lat": 53.645,
      "lng": 30.76,
      "description": null,
      "routes": [
        {
          "name": "L749",
          "id": 101604,
          "translit": "Л749",
          "dataType": "routeAW"
        },
        {
          "name": "M856",
          "id": 101610,
          "translit": "М856",
          "dataType": "routeAW"
        }
      ],
      "dataType": "pointAW",
      "translit": "КОПОН",
      "type": 3
    },
    "25266": {
      "id": 25266,
      "name": "TOSPO",
      "lat": 52.0166667,
      "lng": 23.6666667,
      "description": "ТОСПО",
      "routes": [
        {
          "name": "L856",
          "id": 101605,
          "translit": "Л856",
          "dataType": "routeAW"
        },
        {
          "name": "Z367",
          "id": 101652,
          "translit": "З367",
          "dataType": "routeAW"
        }
      ],
      "dataType": "pointAW",
      "translit": "ТОСПО",
      "type": 3
    },
    "25267": {
      "id": 25267,
      "name": "RAVOK",
      "lat": 52.2133333,
      "lng": 24.095,
      "description": null,
      "routes": [
        {
          "name": "L856",
          "id": 101605,
          "translit": "Л856",
          "dataType": "routeAW"
        },
        {
          "name": "P851",
          "id": 101631,
          "translit": "П851",
          "dataType": "routeAW"
        },
        {
          "name": "T406",
          "id": 101639,
          "translit": "Т406",
          "dataType": "routeAW"
        },
        {
          "name": "T52",
          "id": 101642,
          "translit": "Т52",
          "dataType": "routeAW"
        },
        {
          "name": "Z860",
          "id": 101660,
          "translit": "З860",
          "dataType": "routeAW"
        }
      ],
      "dataType": "pointAW",
      "translit": "РАЖОК",
      "type": 3
    },
    "25268": {
      "id": 25268,
      "name": "SOSUD",
      "lat": 52.42,
      "lng": 24.9666667,
      "description": null,
      "routes": [
        {
          "name": "L856",
          "id": 101605,
          "translit": "Л856",
          "dataType": "routeAW"
        }
      ],
      "dataType": "pointAW",
      "translit": "СОСУД",
      "type": 3
    },
    "25269": {
      "id": 25269,
      "name": "DELON",
      "lat": 53.35,
      "lng": 28.65,
      "description": "ОСИПОВИЧИ",
      "routes": [
        {
          "name": "L856",
          "id": 101605,
          "translit": "Л856",
          "dataType": "routeAW"
        },
        {
          "name": "N743",
          "id": 101622,
          "translit": "Н743",
          "dataType": "routeAW"
        },
        {
          "name": "P26",
          "id": 101628,
          "translit": "П26",
          "dataType": "routeAW"
        },
        {
          "name": "P987",
          "id": 101632,
          "translit": "П987",
          "dataType": "routeAW"
        },
        {
          "name": "Z402",
          "id": 101655,
          "translit": "З402",
          "dataType": "routeAW"
        }
      ],
      "dataType": "pointAW",
      "translit": "ДЕЛОН",
      "type": 3
    },
    "25270": {
      "id": 25270,
      "name": "PEKUD",
      "lat": 53.59,
      "lng": 29.65,
      "description": null,
      "routes": null,
      "dataType": "pointAW",
      "translit": "ПЕКУД",
      "type": 3
    },